network,station id,start_date,end_date, lat,lon,elev,element,state,county,basin,site_name,site_info_link,cdbs_id,shef_id,gmt_offset
snotel,1267,8/28/2014,1/1/2100,61.75,-150.89,160,Snow Water Equivalent,AK,Matanuska-susitna,Headwaters Alexander Creek,Alexander Lake,http://www.wcc.nrcs.usda.gov/nwcc/site?sitenum=1267,50M01S  ,ALXA2,9
snotel,1189,8/4/2011,1/1/2100,64.79,-141.23,1050,Snow Water Equivalent,AK,Southeast Fairbanks,American Creek,American Creek,http://www.wcc.nrcs.usda.gov/nwcc/site?sitenum=1189,41P07S  ,AMCA2,9
snotel,1062,10/1/1980,1/1/2100,59.86,-151.32,1653,Snow Water Equivalent,AK,Kenai Peninsula,Headwaters Anchor River,Anchor River Divide,http://www.wcc.nrcs.usda.gov/nwcc/site?sitenum=1062,51K05S  ,ARDA2,9
snotel,1070,10/1/2004,1/1/2100,61.11,-149.67,2080,Snow Water Equivalent,AK,Anchorage,South Fork Campbell Creek,Anchorage Hillside,http://www.wcc.nrcs.usda.gov/nwcc/site?sitenum=1070,49M22S  ,HILA2,9
snotel,1182,10/1/1980,1/1/2100,66.92,-151.53,640,Snow Water Equivalent,AK,Yukon-koyukuk,Jack White Creek-Koyukuk River,Bettles Field,http://www.wcc.nrcs.usda.gov/nwcc/site?sitenum=1182,51R01S  ,BFLA2,9
snotel,1260,9/28/2020,1/1/2100,64.76,-147.22,500,Snow Water Equivalent,AK,Fairbanks North Star,1.90803E+11,Chena Lakes,http://www.wcc.nrcs.usda.gov/nwcc/site?sitenum=1260,47P06   ,CLNA2,9
snotel,1093,10/1/2007,1/1/2100,62.07,-142.05,3320,Snow Water Equivalent,AK,Valdez-cordova,Red Hill Creek-Chisana River,Chisana,http://www.wcc.nrcs.usda.gov/nwcc/site?sitenum=1093,42N01S  ,CNAA2,9
snotel,958,10/1/1994,1/1/2100,67.25,-150.18,1040,Snow Water Equivalent,AK,Yukon-koyukuk,Slate Creek,Coldfoot,http://www.wcc.nrcs.usda.gov/nwcc/site?sitenum=958,50S01S  ,COFA2,9
snotel,959,10/1/1981,1/1/2100,60.39,-149.69,1200,Snow Water Equivalent,AK,Kenai Peninsula,Kenai Lake,Cooper Lake,http://www.wcc.nrcs.usda.gov/nwcc/site?sitenum=959,49L10S  ,CORA2,9
snotel,1302,8/13/2021,1/1/2100,64.87,-147.74,440,Snow Water Equivalent,AK,Fairbanks North Star,Chena River,Creamers Field,http://www.wcc.nrcs.usda.gov/nwcc/site?sitenum=1302,47P07S  ,SCFA2,9
snotel,953,12/17/2019,1/1/2100,61.6,-149.1,230,Snow Water Equivalent,AK,Matanuska-susitna,Outlet Matanuska River,East Palmer,http://www.wcc.nrcs.usda.gov/nwcc/site?sitenum=953,        ,     ,9
snotel,1092,7/8/2011,1/1/2100,60.19,-149.62,400,Snow Water Equivalent,AK,Kenai Peninsula,Oulet Resurrection River,Exit Glacier,http://www.wcc.nrcs.usda.gov/nwcc/site?sitenum=1092,49L18S  ,EXGA2,9
snotel,1174,10/1/1982,10/28/2020,64.85,-147.8,450,Snow Water Equivalent,AK,Fairbanks North Star,Chena River,Fairbanks F.O.,http://www.wcc.nrcs.usda.gov/nwcc/site?sitenum=1174,47P03S  ,FOFA2,9
snotel,1268,8/7/2014,1/1/2100,63.2,-145.63,3000,Snow Water Equivalent,AK,Valdez-cordova,Fielding Lake,Fielding Lake,http://www.wcc.nrcs.usda.gov/nwcc/site?sitenum=1268,45O01S  ,FLDA2,9
snotel,1285,8/15/2017,1/1/2100,59.4,-136.28,2510,Snow Water Equivalent,AK,Haines,Porcupine Creek,Flower Mountain,http://www.wcc.nrcs.usda.gov/nwcc/site?sitenum=1285,36K01S  ,FLOA2,9
snotel,641,10/1/2019,1/1/2100,61.75,-149.27,2700,Snow Water Equivalent,AK,Matanuska-susitna,Fishhook Creek-Little Susitna River,Frostbite Bottom,http://www.wcc.nrcs.usda.gov/nwcc/site?sitenum=641,        ,FBBA2,9
snotel,429,8/16/2018,1/1/2100,64.7,-156.71,410,Snow Water Equivalent,AK,Yukon-koyukuk,Louden Slough-Yukon River,Galena AK,http://www.wcc.nrcs.usda.gov/nwcc/site?sitenum=429,        ,GANA2,9
snotel,956,10/1/1990,1/1/2100,60.61,-149.06,1100,Snow Water Equivalent,AK,Kenai Peninsula,Headwaters Trail Creek,Grandview,http://www.wcc.nrcs.usda.gov/nwcc/site?sitenum=956,49L09S  ,GRVA2,9
snotel,963,10/1/1988,1/1/2100,63.94,-145.4,1240,Snow Water Equivalent,AK,Southeast Fairbanks,Granite Creek,Granite Crk,http://www.wcc.nrcs.usda.gov/nwcc/site?sitenum=963,45O04S  ,GCKA2,9
snotel,964,10/1/1996,1/1/2100,60.26,-149.34,700,Snow Water Equivalent,AK,Kenai Peninsula,South Fork Snow River,Grouse Creek Divide,http://www.wcc.nrcs.usda.gov/nwcc/site?sitenum=964,49L14S  ,GCRA2,9
snotel,2222,10/1/2018,1/1/2100,62.41,-145.38,1830,Snow Water Equivalent,AK,Valdez-cordova,Boulder Lake-Gulkana River,Gulkana River,http://www.wcc.nrcs.usda.gov/nwcc/site?sitenum=2222,        ,GSNA2,9
snotel,1270,8/6/2015,1/1/2100,58.7,-134.86,2065,Snow Water Equivalent,AK,Juneau,Davies Creek,Heen Latinee,http://www.wcc.nrcs.usda.gov/nwcc/site?sitenum=1270,34J07S  ,DCSA2,9
snotel,1091,10/1/1997,1/1/2100,61.79,-149.28,3550,Snow Water Equivalent,AK,Matanuska-susitna,Fishhook Creek-Little Susitna River,Independence Mine,http://www.wcc.nrcs.usda.gov/nwcc/site?sitenum=1091,49M26S  ,HATA2,9
snotel,946,10/1/1979,1/1/2100,61.07,-149.48,2350,Snow Water Equivalent,AK,Anchorage,Headwaters Ship Creek,Indian Pass,http://www.wcc.nrcs.usda.gov/nwcc/site?sitenum=946,49M08S  ,INPA2,9
snotel,1275,10/1/2015,1/1/2100,64.15,-141.33,3585,Snow Water Equivalent,AK,Southeast Fairbanks,Kal Creek,Jack Wade Jct,http://www.wcc.nrcs.usda.gov/nwcc/site?sitenum=1275,41PP8S  ,JWJA2,9
snotel,1072,9/11/2019,1/1/2100,63.54,-150.99,1550,Snow Water Equivalent,AK,Denali,Moose Creek,Kantishna,http://www.wcc.nrcs.usda.gov/nwcc/site?sitenum=1072,50O01S  ,KTSA2,9
snotel,1175,10/1/1992,1/1/2100,67.93,-162.28,310,Snow Water Equivalent,AK,Northwest Arctic,190504030802-Noatak River,Kelly Station,http://www.wcc.nrcs.usda.gov/nwcc/site?sitenum=1175,62S01S  ,KLLA2,9
snotel,966,10/1/1988,1/1/2100,60.73,-150.48,300,Snow Water Equivalent,AK,Kenai Peninsula,Upper Moose River,Kenai Moose Pens,http://www.wcc.nrcs.usda.gov/nwcc/site?sitenum=966,50L02S  ,KMPA2,9
snotel,947,10/1/1980,1/1/2100,65.12,-146.73,2000,Snow Water Equivalent,AK,Fairbanks North Star,190803060706-Little Chena River,Little Chena Ridge,http://www.wcc.nrcs.usda.gov/nwcc/site?sitenum=947,46Q02S  ,LCHA2,9
snotel,1001,10/1/1966,1/1/2100,58.19,-133.83,850,Snow Water Equivalent,AK,Juneau,190102060505-Dawes Glacier,Long Lake,http://www.wcc.nrcs.usda.gov/nwcc/site?sitenum=1001,33J01S  ,LLKA2,9
snotel,1096,10/1/2006,1/1/2100,61.35,-142.71,1610,Snow Water Equivalent,AK,Valdez-cordova,Lower Young Creek,May Creek,http://www.wcc.nrcs.usda.gov/nwcc/site?sitenum=1096,42M01S  ,SNCA2,9
snotel,785,9/10/2019,1/1/2100,62.95,-155.61,340,Snow Water Equivalent,AK,Yukon-koyukuk,Town of McGrath-Kuskokwim River,McGrath,http://www.wcc.nrcs.usda.gov/nwcc/site?sitenum=785,55N01S  ,MCSA2,9
snotel,1003,10/1/1986,1/1/2100,59.74,-151.25,1320,Snow Water Equivalent,AK,Kenai Peninsula,Swift Creek-Frontal Kachemak Bay,Mcneil Canyon,http://www.wcc.nrcs.usda.gov/nwcc/site?sitenum=1003,51K14S  ,MCNA2,9
snotel,1094,8/27/2018,1/1/2100,63.31,-147.65,2710,Snow Water Equivalent,AK,Matanuska-susitna,West Fork Susitna River,Monahan Flat,http://www.wcc.nrcs.usda.gov/nwcc/site?sitenum=1094,47O01S  ,MNFA2,9
snotel,949,10/1/1980,1/1/2100,65.08,-145.87,1850,Snow Water Equivalent,AK,Fairbanks North Star,Monument Creek,Monument Creek,http://www.wcc.nrcs.usda.gov/nwcc/site?sitenum=949,45Q02S  ,MNCA2,9
snotel,1035,10/1/2001,1/1/2100,61.38,-149,2100,Snow Water Equivalent,AK,Anchorage,Eklutna Lake,Moraine,http://www.wcc.nrcs.usda.gov/nwcc/site?sitenum=1035,48M04S  ,MORA2,9
snotel,1103,10/1/1972,1/1/2100,60.96,-149.09,1540,Snow Water Equivalent,AK,Anchorage,Glacier Creek,Mt. Alyeska,http://www.wcc.nrcs.usda.gov/nwcc/site?sitenum=1103,49L01S  ,YESA2,9
snotel,1073,10/1/2004,1/1/2100,60.55,-145.75,1405,Snow Water Equivalent,AK,Valdez-cordova,Orca Inlet-Frontal Prince William Sound,Mt. Eyak,http://www.wcc.nrcs.usda.gov/nwcc/site?sitenum=1073,45L01S  ,EYKA2,9
snotel,948,10/1/1980,1/1/2100,65.25,-146.15,2800,Snow Water Equivalent,AK,Fairbanks North Star,Headwaters West Fork Chena River,Mt. Ryan,http://www.wcc.nrcs.usda.gov/nwcc/site?sitenum=948,46Q01S  ,MTRA2,9
snotel,950,10/1/1980,1/1/2100,64.85,-146.21,3100,Snow Water Equivalent,AK,Fairbanks North Star,Rock Creek-Chena River,Munson Ridge,http://www.wcc.nrcs.usda.gov/nwcc/site?sitenum=950,46P01S  ,MSOA2,9
snotel,1301,7/27/2021,1/1/2100,62.83,-141.41,2010,Snow Water Equivalent,AK,Southeast Fairbanks,190803010807-Black Hills,Paradise Hill,http://www.wcc.nrcs.usda.gov/nwcc/site?sitenum=1301,41N02S  ,SPHA2,9
snotel,1002,10/1/1998,8/27/2015,61.39,-150.03,250,Snow Water Equivalent,AK,Matanuska-susitna,Stephan Lake-Goose Creek,Point Mackenzie,http://www.wcc.nrcs.usda.gov/nwcc/site?sitenum=1002,50M03S  ,PTMA2,9
snotel,987,10/1/1999,1/1/2100,59.35,-151.85,300,Snow Water Equivalent,AK,Kenai Peninsula,Port Graham-Frontal Cook Inlet,Port Graham,http://www.wcc.nrcs.usda.gov/nwcc/site?sitenum=987,51K15S  ,PGRA2,9
snotel,2044,6/25/2018,10/14/2019,61.66,-149.13,580,Snow Water Equivalent,AK,Matanuska-susitna,Outlet Matanuska River,Spring Creek,http://www.wcc.nrcs.usda.gov/nwcc/site?sitenum=2044,        ,SCPA2,9
snotel,955,10/1/1988,1/1/2100,60.62,-149.53,1400,Snow Water Equivalent,AK,Kenai Peninsula,Headwaters Canyon Creek,Summit Creek,http://www.wcc.nrcs.usda.gov/nwcc/site?sitenum=955,49L19S  ,SUUA2,9
snotel,967,10/1/1987,1/1/2100,62.13,-150.04,375,Snow Water Equivalent,AK,Matanuska-susitna,Little Montana Creek-Montana Creek,Susitna Valley High,http://www.wcc.nrcs.usda.gov/nwcc/site?sitenum=967,50N07S  ,SUVA2,9
snotel,1266,7/9/2014,1/1/2100,60.98,-153.92,1275,Snow Water Equivalent,AK,Bethel,Upper Telaquana River,Telaquana Lake,http://www.wcc.nrcs.usda.gov/nwcc/site?sitenum=1266,53L01S  ,TQUA2,9
snotel,951,10/1/1980,1/1/2100,64.95,-145.52,1640,Snow Water Equivalent,AK,Fairbanks North Star,Teuchet Creek,Teuchet Creek,http://www.wcc.nrcs.usda.gov/nwcc/site?sitenum=951,45P03S  ,TEUA2,9
snotel,2080,8/16/2017,1/1/2100,63.35,-142.98,1630,Snow Water Equivalent,AK,Southeast Fairbanks,Tanacross,Tok,http://www.wcc.nrcs.usda.gov/nwcc/site?sitenum=2080,SC2080  ,TOSA2,9
snotel,1089,10/1/2005,1/1/2100,62.63,-150.78,850,Snow Water Equivalent,AK,Matanuska-susitna,Upper Tokositna River,Tokositna Valley,http://www.wcc.nrcs.usda.gov/nwcc/site?sitenum=1089,50N05S  ,TKVA2,9
snotel,954,10/1/1981,1/1/2100,60.78,-149.18,1880,Snow Water Equivalent,AK,Kenai Peninsula,Granite Creek,Turnagain Pass,http://www.wcc.nrcs.usda.gov/nwcc/site?sitenum=954,49L13S  ,TUGA2,9
snotel,952,10/1/1985,1/1/2100,65.1,-144.93,2850,Snow Water Equivalent,AK,Fairbanks North Star,Headwaters Middle Fork Chena River,Upper Chena,http://www.wcc.nrcs.usda.gov/nwcc/site?sitenum=952,44Q07S  ,UCEA2,9
snotel,1090,9/10/2019,1/1/2100,65.37,-146.59,2520,Snow Water Equivalent,AK,Yukon-koyukuk,Sumner Creek-Nome Creek,Upper Nome Creek,http://www.wcc.nrcs.usda.gov/nwcc/site?sitenum=1090,46Q07S  ,UNCA2,9
snotel,1055,10/1/2002,1/1/2100,61.19,-145.65,1750,Snow Water Equivalent,AK,Valdez-cordova,Middle Tsina River,Upper Tsaina River,http://www.wcc.nrcs.usda.gov/nwcc/site?sitenum=1055,45M07S  ,UPPA2,9
snotel,308,10/1/1978,1/1/2100,34.46,-111.41,7300,Snow Water Equivalent,AZ,Gila,Pine Creek,Baker Butte,http://www.wcc.nrcs.usda.gov/nwcc/site?sitenum=308,11R06S  ,BKBA3,8
snotel,1140,5/18/2009,1/1/2100,34.46,-111.38,7700,Snow Water Equivalent,AZ,Coconino,Toms Creek,Baker Butte Smt,http://www.wcc.nrcs.usda.gov/nwcc/site?sitenum=1140,11R07S  ,BBSA3,8
snotel,310,10/1/1978,1/1/2100,33.98,-109.5,9125,Snow Water Equivalent,AZ,Apache,Hall Creek-Little Colorado River,Baldy,http://www.wcc.nrcs.usda.gov/nwcc/site?sitenum=310,09S01S  ,BLDA3,8
snotel,1212,9/6/2012,1/1/2100,34.86,-111.61,6393,Snow Water Equivalent,AZ,Coconino,Bar M Canyon,Bar M,http://www.wcc.nrcs.usda.gov/nwcc/site?sitenum=1212,11R13S  ,BRMA3,8
snotel,902,10/1/1993,1/1/2100,33.69,-109.22,7990,Snow Water Equivalent,AZ,Greenlee,Upper Beaver Creek,Beaver Head,http://www.wcc.nrcs.usda.gov/nwcc/site?sitenum=902,09S06S  ,XBHA3,8
snotel,1143,10/1/2009,1/1/2100,36.33,-109.06,9200,Snow Water Equivalent,AZ,Apache,Tsaile Creek-Tsaile Lake,Beaver Spring,http://www.wcc.nrcs.usda.gov/nwcc/site?sitenum=1143,09N05S  ,BVRA3,8
snotel,1139,5/15/2009,1/1/2100,35.26,-112.06,7100,Snow Water Equivalent,AZ,Coconino,Pitman Valley-Scholz Lake,Chalender,http://www.wcc.nrcs.usda.gov/nwcc/site?sitenum=1139,12P01S  ,CDRA3,8
snotel,416,10/1/1978,1/1/2100,33.8,-109.15,8400,Snow Water Equivalent,AZ,Apache,Coleman Creek,Coronado Trail,http://www.wcc.nrcs.usda.gov/nwcc/site?sitenum=416,09S07S  ,CNDA3,8
snotel,1121,6/26/2008,1/1/2100,35.27,-111.74,7350,Snow Water Equivalent,AZ,Coconino,Upper Rio de Flag,Fort Valley,http://www.wcc.nrcs.usda.gov/nwcc/site?sitenum=1121,11P02S  ,FRVA3,8
snotel,488,10/1/1978,1/1/2100,35.07,-111.84,7200,Snow Water Equivalent,AZ,Coconino,Fry Canyon,Fry,http://www.wcc.nrcs.usda.gov/nwcc/site?sitenum=488,11P13S  ,FRYA3,8
snotel,511,10/1/1978,1/1/2100,33.65,-109.31,9020,Snow Water Equivalent,AZ,Greenlee,Upper Beaver Creek,Hannagan Meadows,http://www.wcc.nrcs.usda.gov/nwcc/site?sitenum=511,09S11S  ,HNMA3,8
snotel,969,6/13/1999,1/1/2100,34.75,-111.41,7630,Snow Water Equivalent,AZ,Coconino,Brady Canyon,Happy Jack,http://www.wcc.nrcs.usda.gov/nwcc/site?sitenum=969,11R05S  ,XHJA3,8
snotel,1271,9/18/2015,1/1/2100,33.97,-109.77,8300,Snow Water Equivalent,AZ,Apache,Trout Creek,Hawley Lake,http://www.wcc.nrcs.usda.gov/nwcc/site?sitenum=1271,09S16S  ,HAWA3,8
snotel,519,10/1/1978,1/1/2100,34.31,-110.75,7640,Snow Water Equivalent,AZ,Coconino,West Fork Black Canyon,Heber,http://www.wcc.nrcs.usda.gov/nwcc/site?sitenum=519,10R04S  ,HBEA3,8
snotel,617,10/1/1978,1/1/2100,33.92,-109.46,9200,Snow Water Equivalent,AZ,Apache,Upper West Fork Black River,Maverick Fork,http://www.wcc.nrcs.usda.gov/nwcc/site?sitenum=617,09S02S  ,MVFA3,8
snotel,640,10/1/1978,1/1/2100,34.94,-111.52,7500,Snow Water Equivalent,AZ,Coconino,Mormon Lake,Mormon Mountain,http://www.wcc.nrcs.usda.gov/nwcc/site?sitenum=640,11R03S  ,MRMA3,8
snotel,1125,6/2/2008,1/1/2100,34.97,-111.51,8500,Snow Water Equivalent,AZ,Coconino,Walnut Creek-Upper Lake Mary,Mormon Mtn Summit,http://www.wcc.nrcs.usda.gov/nwcc/site?sitenum=1125,11R12S  ,MMNA3,8
snotel,1127,6/2/2008,1/1/2100,33.9,-109.16,8500,Snow Water Equivalent,AZ,Apache,San Francisco River-Luna Lake,Nutrioso,http://www.wcc.nrcs.usda.gov/nwcc/site?sitenum=1127,09S04S  ,NUTA3,8
snotel,705,10/1/1979,1/1/2100,34.37,-111.01,7930,Snow Water Equivalent,AZ,Coconino,Upper Willow Creek,Promontory,http://www.wcc.nrcs.usda.gov/nwcc/site?sitenum=705,11R10S  ,PROA3,8
snotel,927,9/13/1997,1/1/2100,35.34,-111.65,9730,Snow Water Equivalent,AZ,Coconino,Bear Jaw Canyon,Snowslide Canyon,http://www.wcc.nrcs.usda.gov/nwcc/site?sitenum=927,11P08S  ,XSCA3,8
snotel,861,10/1/1978,1/1/2100,35.14,-112.15,7180,Snow Water Equivalent,AZ,Coconino,Upper Hell Canyon,White Horse Lake,http://www.wcc.nrcs.usda.gov/nwcc/site?sitenum=861,12P02S  ,WHLA3,8
snotel,866,10/1/1983,1/1/2100,33.76,-109.48,7850,Snow Water Equivalent,AZ,Greenlee,Centerfire Creek,Wildcat,http://www.wcc.nrcs.usda.gov/nwcc/site?sitenum=866,09S18S  ,WCTA3,8
snotel,877,10/1/1978,1/1/2100,33.81,-110.92,6900,Snow Water Equivalent,AZ,Gila,Workman Creek,Workman Creek,http://www.wcc.nrcs.usda.gov/nwcc/site?sitenum=877,10S01S  ,WKMA3,8
snotel,301,10/1/1983,1/1/2100,41.24,-120.79,6190,Snow Water Equivalent,CA,Modoc,Cottonwood Creek,Adin Mtn,http://www.wcc.nrcs.usda.gov/nwcc/site?sitenum=301,20H13S  ,ADMC1,8
snotel,356,10/1/1979,1/1/2100,38.61,-119.92,8067,Snow Water Equivalent,CA,Alpine,Deer Creek,Blue Lakes,http://www.wcc.nrcs.usda.gov/nwcc/site?sitenum=356,19L05S  ,BLAC1,8
snotel,1051,9/21/2003,1/1/2100,38.72,-119.89,8129,Snow Water Equivalent,CA,Alpine,Hot Springs Creek,Burnside Lake,http://www.wcc.nrcs.usda.gov/nwcc/site?sitenum=1051,19L41S  ,BSKC1,8
snotel,1067,9/23/2004,1/1/2100,38.69,-120,8360,Snow Water Equivalent,CA,Alpine,Caples Creek,Carson Pass,http://www.wcc.nrcs.usda.gov/nwcc/site?sitenum=1067,19L45S  ,CXSC1,8
snotel,391,10/1/1978,1/1/2100,41.58,-120.3,7030,Snow Water Equivalent,CA,Modoc,Thoms Creek,Cedar Pass,http://www.wcc.nrcs.usda.gov/nwcc/site?sitenum=391,20H06S  ,CDRC1,8
snotel,977,10/1/1999,1/1/2100,41.89,-120.75,5170,Snow Water Equivalent,CA,Modoc,Mosquito Creek-Willow Creek,Crowder Flat,http://www.wcc.nrcs.usda.gov/nwcc/site?sitenum=977,20H02S  ,CRWC1,8
snotel,428,10/1/1980,1/1/2100,39.33,-120.37,6894,Snow Water Equivalent,CA,Nevada,Rattlesnake Creek-South Yuba River,Css Lab,http://www.wcc.nrcs.usda.gov/nwcc/site?sitenum=428,20K31S  ,CSSC1,8
snotel,446,10/1/1979,1/1/2100,41.99,-120.18,7360,Snow Water Equivalent,CA,Modoc,Dismal Creek-Deep Creek,Dismal Swamp,http://www.wcc.nrcs.usda.gov/nwcc/site?sitenum=446,20H12S  ,DMLC1,8
snotel,462,10/1/1978,1/1/2100,38.55,-119.8,8661,Snow Water Equivalent,CA,Alpine,Silver Creek,Ebbetts Pass,http://www.wcc.nrcs.usda.gov/nwcc/site?sitenum=462,19L19S  ,EBTC1,8
snotel,463,10/1/1978,1/1/2100,38.85,-120.08,7653,Snow Water Equivalent,CA,El Dorado,Upper Truckee River-Frontal Lake Tahoe,Echo Peak,http://www.wcc.nrcs.usda.gov/nwcc/site?sitenum=463,20L06S  ,ECOC1,8
snotel,473,10/1/1978,1/1/2100,38.93,-120.05,6242,Snow Water Equivalent,CA,El Dorado,Fallen Leaf Lake-Frontal Lake Tahoe,Fallen Leaf,http://www.wcc.nrcs.usda.gov/nwcc/site?sitenum=473,20L10S  ,FLFC1,8
snotel,1049,9/20/2003,1/1/2100,38.68,-119.96,8017,Snow Water Equivalent,CA,Alpine,Upper West Fork Carson River,Forestdale Creek,http://www.wcc.nrcs.usda.gov/nwcc/site?sitenum=1049,19L43S  ,FDCC1,8
snotel,1277,10/7/2016,1/1/2100,40.69,-120.61,7208,Snow Water Equivalent,CA,Lassen,Lower Dry Lake-Frontal Eagle Lake,Fredonyer Peak,http://www.wcc.nrcs.usda.gov/nwcc/site?sitenum=1277,20J01S  ,FPKC1,8
snotel,508,10/1/1978,1/1/2100,38.85,-119.94,7742,Snow Water Equivalent,CA,El Dorado,Trout Creek,Hagans Meadow,http://www.wcc.nrcs.usda.gov/nwcc/site?sitenum=508,19L03S  ,HGNC1,8
snotel,518,10/1/1978,1/1/2100,38.92,-119.92,8534,Snow Water Equivalent,CA,El Dorado,Trout Creek,Heavenly Valley,http://www.wcc.nrcs.usda.gov/nwcc/site?sitenum=518,19L24S  ,HVNC1,8
snotel,1050,9/21/2003,1/1/2100,38.84,-119.89,8557,Snow Water Equivalent,CA,Alpine,Middle West Fork Carson River,Horse Meadow,http://www.wcc.nrcs.usda.gov/nwcc/site?sitenum=1050,19L44S  ,HORC1,8
snotel,539,10/1/1978,1/1/2100,39.45,-120.29,6980,Snow Water Equivalent,CA,Sierra,Independence Creek,Independence Camp,http://www.wcc.nrcs.usda.gov/nwcc/site?sitenum=539,20K04S  ,ICPC1,8
snotel,540,10/1/1979,1/1/2100,39.49,-120.28,6436,Snow Water Equivalent,CA,Sierra,Independence Creek,Independence Creek,http://www.wcc.nrcs.usda.gov/nwcc/site?sitenum=540,20K03S  ,ICKC1,8
snotel,541,10/1/1978,1/1/2100,39.43,-120.31,8338,Snow Water Equivalent,CA,Nevada,Sagehen Creek,Independence Lake,http://www.wcc.nrcs.usda.gov/nwcc/site?sitenum=541,20K05S  ,ILKC1,8
snotel,574,10/1/1988,1/1/2100,38.28,-119.61,9604,Snow Water Equivalent,CA,Mono,Leavitt Creek-West Walker River,Leavitt Lake,http://www.wcc.nrcs.usda.gov/nwcc/site?sitenum=574,19L38S  ,LELC1,8
snotel,575,10/1/1979,1/1/2100,38.3,-119.55,7198,Snow Water Equivalent,CA,Mono,Leavitt Creek-West Walker River,Leavitt Meadows,http://www.wcc.nrcs.usda.gov/nwcc/site?sitenum=575,19L08S  ,LVTC1,8
snotel,587,10/1/1978,1/1/2100,38.44,-119.37,9249,Snow Water Equivalent,CA,Mono,Deep Creek,Lobdell Lake,http://www.wcc.nrcs.usda.gov/nwcc/site?sitenum=587,19L17S  ,LOBC1,8
snotel,633,10/1/1989,1/1/2100,38.67,-119.61,8306,Snow Water Equivalent,CA,Alpine,Leviathan Canyon,Monitor Pass,http://www.wcc.nrcs.usda.gov/nwcc/site?sitenum=633,19L40S  ,MNPC1,8
snotel,784,10/1/1979,1/1/2100,39.19,-120.27,8013,Snow Water Equivalent,CA,Placer,Squaw Creek-Truckee River,Palisades Tahoe,http://www.wcc.nrcs.usda.gov/nwcc/site?sitenum=784,20K30S  ,SQWC1,8
snotel,697,10/1/1979,1/1/2100,38.51,-119.63,7736,Snow Water Equivalent,CA,Alpine,Bryant Creek-East Fork Carson River,Poison Flat,http://www.wcc.nrcs.usda.gov/nwcc/site?sitenum=697,19L06S  ,XXXC1,8
snotel,724,10/1/1979,1/1/2100,39,-120.13,7619,Snow Water Equivalent,CA,El Dorado,General Creek-Frontal Lake Tahoe,Rubicon #2,http://www.wcc.nrcs.usda.gov/nwcc/site?sitenum=724,20L02S  ,RUBC1,8
snotel,771,10/1/1978,1/1/2100,38.31,-119.6,8770,Snow Water Equivalent,CA,Mono,Leavitt Creek-West Walker River,Sonora Pass,http://www.wcc.nrcs.usda.gov/nwcc/site?sitenum=771,19L07S  ,SRAC1,8
snotel,778,10/1/1979,1/1/2100,38.67,-119.82,6063,Snow Water Equivalent,CA,Alpine,Hot Springs Creek,Spratt Creek,http://www.wcc.nrcs.usda.gov/nwcc/site?sitenum=778,19L39S  ,SPCC1,8
snotel,1258,6/17/2014,1/1/2100,41.99,-120.72,5680,Snow Water Equivalent,CA,Modoc,Weed Valley-North Fork Willow Creek,State Line,http://www.wcc.nrcs.usda.gov/nwcc/site?sitenum=1258,20H01S  ,TATC1,8
snotel,1052,9/22/2003,1/1/2100,38.4,-119.54,9313,Snow Water Equivalent,CA,Alpine,Mill Creek,Summit Meadow,http://www.wcc.nrcs.usda.gov/nwcc/site?sitenum=1052,19L42S  ,SDWC1,8
snotel,809,10/1/1979,1/1/2100,39.17,-120.15,6797,Snow Water Equivalent,CA,Placer,Burton Creek-Frontal Lake Tahoe,Tahoe City Cross,http://www.wcc.nrcs.usda.gov/nwcc/site?sitenum=809,20K27S  ,THOC1,8
snotel,834,10/1/1979,1/1/2100,39.3,-120.18,6509,Snow Water Equivalent,CA,Placer,Martis Creek,Truckee #2,http://www.wcc.nrcs.usda.gov/nwcc/site?sitenum=834,20K13S  ,TRUC1,8
snotel,846,10/1/1978,1/1/2100,38.07,-119.23,9400,Snow Water Equivalent,CA,Mono,Virginia Creek,Virginia Lakes Ridge,http://www.wcc.nrcs.usda.gov/nwcc/site?sitenum=846,19L13S  ,VGAC1,8
snotel,848,10/1/1978,1/1/2100,39.14,-120.22,6745,Snow Water Equivalent,CA,Placer,Ward Creek-Frontal Lake Tahoe,Ward Creek #3,http://www.wcc.nrcs.usda.gov/nwcc/site?sitenum=848,20K25S  ,WRDC1,8
snotel,303,10/1/1979,1/1/2100,37.33,-105.07,10000,Snow Water Equivalent,CO,Huerfano,Middle Creek-Cucharas River,Apishapa,http://www.wcc.nrcs.usda.gov/nwcc/site?sitenum=303,05M07S  ,APSC2,8
snotel,1030,8/14/2002,1/1/2100,40.35,-106.35,10960,Snow Water Equivalent,CO,Grand,Rabbit Ears Creek-Troublesome Creek,Arapaho Ridge,http://www.wcc.nrcs.usda.gov/nwcc/site?sitenum=1030,06J08S  ,ARPC2,8
snotel,305,10/1/1978,10/1/2013,39.92,-105.76,9680,Snow Water Equivalent,CO,Grand,Upper Fraser River,Arrow,http://www.wcc.nrcs.usda.gov/nwcc/site?sitenum=305,05K06S  ,AROC2,8
snotel,322,10/1/1979,1/1/2100,40.31,-105.65,9500,Snow Water Equivalent,CO,Larimer,Glacier Creek,Bear Lake,http://www.wcc.nrcs.usda.gov/nwcc/site?sitenum=322,05J39S  ,BLKC2,8
snotel,1061,10/1/2004,1/1/2100,40.06,-107.01,9080,Snow Water Equivalent,CO,Routt,Yamcolo Reservoir-Bear River,Bear River,http://www.wcc.nrcs.usda.gov/nwcc/site?sitenum=1061,07J03S  ,BRRC2,8
snotel,327,10/1/1979,1/1/2100,37.71,-107.51,11600,Snow Water Equivalent,CO,Mineral,Bear Creek-Rio Grande,Beartown,http://www.wcc.nrcs.usda.gov/nwcc/site?sitenum=327,07M32S  ,BRTC2,8
snotel,1041,11/15/2002,1/1/2100,39.6,-106.51,8500,Snow Water Equivalent,CO,Eagle,Beaver Creek-Eagle Creek,Beaver Ck Village,http://www.wcc.nrcs.usda.gov/nwcc/site?sitenum=1041,06K45S  ,BCVC2,8
snotel,335,10/1/1978,1/1/2100,39.8,-105.78,11300,Snow Water Equivalent,CO,Grand,Upper Fraser River,Berthoud Summit,http://www.wcc.nrcs.usda.gov/nwcc/site?sitenum=335,05K14S  ,BTSC2,8
snotel,345,10/1/1985,1/1/2100,39.76,-107.36,10880,Snow Water Equivalent,CO,Garfield,Headwaters Deep Creek,Bison Lake,http://www.wcc.nrcs.usda.gov/nwcc/site?sitenum=345,07K12S  ,BLSC2,8
snotel,1185,7/28/2011,1/1/2100,37.79,-108.18,11580,Snow Water Equivalent,CO,Dolores,Fish Creek,Black Mesa,http://www.wcc.nrcs.usda.gov/nwcc/site?sitenum=1185,08M12S  ,BMSC2,8
snotel,1161,10/1/2010,1/1/2100,40.89,-105.66,8920,Snow Water Equivalent,CO,Larimer,Upper Dale Creek,Black Mountain,http://www.wcc.nrcs.usda.gov/nwcc/site?sitenum=1161,05J28S  ,BMNC2,8
snotel,369,10/1/1979,1/1/2100,39.09,-106.54,10600,Snow Water Equivalent,CO,Lake,North Fork Lake Creek,Brumley,http://www.wcc.nrcs.usda.gov/nwcc/site?sitenum=369,06K40S  ,BRMC2,8
snotel,938,8/10/1998,1/1/2100,39.3,-106.11,11150,Snow Water Equivalent,CO,Park,Headwaters Middle Fork South Platte River,Buckskin Joe,http://www.wcc.nrcs.usda.gov/nwcc/site?sitenum=938,06K16S  ,BUCC2,8
snotel,913,9/15/1995,1/1/2100,40.23,-106.6,9240,Snow Water Equivalent,CO,Grand,Red Dirt Creek,Buffalo Park,http://www.wcc.nrcs.usda.gov/nwcc/site?sitenum=913,06J18S  ,BUFC2,8
snotel,378,10/1/1978,1/1/2100,39.88,-107.6,9400,Snow Water Equivalent,CO,Rio Blanco,North Elk Creek,Burro Mountain,http://www.wcc.nrcs.usda.gov/nwcc/site?sitenum=378,07K02S  ,BURC2,8
snotel,380,10/1/1979,1/1/2100,38.89,-106.95,10160,Snow Water Equivalent,CO,Gunnison,Washington Gulch-Slate River,Butte,http://www.wcc.nrcs.usda.gov/nwcc/site?sitenum=380,06L11S  ,BUTC2,8
snotel,386,10/1/1978,1/1/2100,37.65,-107.81,8880,Snow Water Equivalent,CO,San Juan,Headwaters Cascade Creek,Cascade,http://www.wcc.nrcs.usda.gov/nwcc/site?sitenum=386,07M05S  ,CSCC2,8
snotel,387,10/1/1990,1/1/2100,37.66,-107.8,8920,Snow Water Equivalent,CO,San Juan,Headwaters Cascade Creek,Cascade #2,http://www.wcc.nrcs.usda.gov/nwcc/site?sitenum=387,07M35S  ,CADC2,8
snotel,1101,9/7/2007,1/1/2100,39.26,-106.63,10110,Snow Water Equivalent,CO,Pitkin,Deeds Creek-Fryingpan River,Chapman Tunnel,http://www.wcc.nrcs.usda.gov/nwcc/site?sitenum=1101,06K46S  ,HAPC2,8
snotel,1059,9/10/2004,1/1/2100,38.16,-106.6,10020,Snow Water Equivalent,CO,Saguache,Luders Creek,Cochetopa Pass,http://www.wcc.nrcs.usda.gov/nwcc/site?sitenum=1059,06L06S  ,CZSC2,8
snotel,408,10/1/1978,1/1/2100,40.39,-106.6,9160,Snow Water Equivalent,CO,Jackson,Upper Grizzly Creek,Columbine,http://www.wcc.nrcs.usda.gov/nwcc/site?sitenum=408,06J03S  ,COLC2,8
snotel,409,10/1/1985,1/1/2100,38.42,-108.38,9400,Snow Water Equivalent,CO,Montrose,Potter Creek,Columbine Pass,http://www.wcc.nrcs.usda.gov/nwcc/site?sitenum=409,08L02S  ,CPSC2,8
snotel,904,8/30/1994,1/1/2100,37.44,-108.02,10785,Snow Water Equivalent,CO,La Plata,Headwaters La Plata River,Columbus Basin,http://www.wcc.nrcs.usda.gov/nwcc/site?sitenum=904,08M10S  ,CMBC2,8
snotel,412,10/1/1979,1/1/2100,40.21,-105.57,8600,Snow Water Equivalent,CO,Boulder,Headwaters North Saint Vrain Creek,Copeland Lake,http://www.wcc.nrcs.usda.gov/nwcc/site?sitenum=412,05J18S  ,COPC2,8
snotel,415,10/1/1978,1/1/2100,39.49,-106.17,10550,Snow Water Equivalent,CO,Summit,West Tenmile Creek,Copper Mountain,http://www.wcc.nrcs.usda.gov/nwcc/site?sitenum=415,06K24S  ,CPMC2,8
snotel,426,10/1/1985,1/1/2100,40.17,-107.06,9100,Snow Water Equivalent,CO,Rio Blanco,Outlet Hunt Creek,Crosho,http://www.wcc.nrcs.usda.gov/nwcc/site?sitenum=426,07J04S  ,CRSC2,8
snotel,430,10/1/1978,1/1/2100,37.21,-105.2,10500,Snow Water Equivalent,CO,Costilla,Headwaters Culebra Creek,Culebra #2,http://www.wcc.nrcs.usda.gov/nwcc/site?sitenum=430,05M03S  ,CULC2,8
snotel,431,10/1/1979,1/1/2100,37.02,-106.45,10040,Snow Water Equivalent,CO,Conejos,Wolf Creek,Cumbres Trestle,http://www.wcc.nrcs.usda.gov/nwcc/site?sitenum=431,06M22S  ,CUMC2,8
snotel,438,10/1/1978,1/1/2100,40.81,-105.77,10220,Snow Water Equivalent,CO,Larimer,Lower Dale Creek,Deadman Hill,http://www.wcc.nrcs.usda.gov/nwcc/site?sitenum=438,05J06S  ,DDMC2,8
snotel,457,10/1/1979,1/1/2100,40.53,-106.78,8400,Snow Water Equivalent,CO,Routt,City of Steamboat Springs-Yampa River,Dry Lake,http://www.wcc.nrcs.usda.gov/nwcc/site?sitenum=457,06J01S  ,DRLC2,8
snotel,936,8/10/1998,1/1/2100,39.66,-105.59,10600,Snow Water Equivalent,CO,Clear Creek,Vance Creek,Echo Lake,http://www.wcc.nrcs.usda.gov/nwcc/site?sitenum=936,05K27S  ,ECLC2,8
snotel,465,10/1/1985,1/1/2100,37.79,-108.02,10000,Snow Water Equivalent,CO,Dolores,Cayton Valley-Dolores River,El Diente Peak,http://www.wcc.nrcs.usda.gov/nwcc/site?sitenum=465,08M06S  ,EDSC2,8
snotel,467,10/1/1978,1/1/2100,40.85,-106.97,8700,Snow Water Equivalent,CO,Routt,Steamboat Lake,Elk River,http://www.wcc.nrcs.usda.gov/nwcc/site?sitenum=467,06J15S  ,ELKC2,8
snotel,1252,9/1/2016,1/1/2100,40.8,-107.1,8780,Snow Water Equivalent,CO,Routt,Headwaters Elkhead Creek,Elkhead Divide,http://www.wcc.nrcs.usda.gov/nwcc/site?sitenum=1252,07J06S  ,EKDC2,8
snotel,1120,8/7/2009,1/1/2100,39.86,-106.42,10520,Snow Water Equivalent,CO,Summit,Deep Creek-Blue River,Elliot Ridge,http://www.wcc.nrcs.usda.gov/nwcc/site?sitenum=1120,06K29S  ,ELRC2,8
snotel,1186,7/28/2011,1/1/2100,39.87,-105.87,11150,Snow Water Equivalent,CO,Grand,Saint Louis Creek,Fool Creek,http://www.wcc.nrcs.usda.gov/nwcc/site?sitenum=1186,05K30S  ,FCVC2,8
snotel,485,10/1/1979,1/1/2100,39.38,-106.2,11400,Snow Water Equivalent,CO,Summit,Upper Tenmile Creek,Fremont Pass,http://www.wcc.nrcs.usda.gov/nwcc/site?sitenum=485,06K08S  ,FMTC2,8
snotel,1057,8/2/2004,1/1/2100,38.88,-105.07,11460,Snow Water Equivalent,CO,Teller,Headwaters Fountain Creek,Glen Cove,http://www.wcc.nrcs.usda.gov/nwcc/site?sitenum=1057,05L11S  ,GLNC2,8
snotel,1058,9/10/2004,1/1/2100,37.47,-106.54,11620,Snow Water Equivalent,CO,Rio Grande,East Fork Pinos Creek,Grayback,http://www.wcc.nrcs.usda.gov/nwcc/site?sitenum=1058,06M21S  ,GYBC2,8
snotel,505,10/1/1979,1/1/2100,39.65,-105.87,11100,Snow Water Equivalent,CO,Summit,North Fork Snake River,Grizzly Peak,http://www.wcc.nrcs.usda.gov/nwcc/site?sitenum=505,05K09S  ,GZPC2,8
snotel,1102,8/28/2007,1/1/2100,38.29,-105.85,10720,Snow Water Equivalent,CO,Saguache,Piney Creek-San Luis Creek,Hayden Pass,http://www.wcc.nrcs.usda.gov/nwcc/site?sitenum=1102,05L12S  ,HPAC2,8
snotel,1187,7/28/2011,1/1/2100,40.04,-105.75,10620,Snow Water Equivalent,CO,Grand,Meadows Creek-Ranch Creek,High Lonesome,http://www.wcc.nrcs.usda.gov/nwcc/site?sitenum=1187,05J46S  ,HLNC2,8
snotel,531,10/1/1979,1/1/2100,39.36,-106.06,11400,Snow Water Equivalent,CO,Summit,Headwaters Blue River,Hoosier Pass,http://www.wcc.nrcs.usda.gov/nwcc/site?sitenum=531,06K01S  ,HOOC2,8
snotel,1122,10/1/2008,1/1/2100,40.58,-105.63,9380,Snow Water Equivalent,CO,Larimer,Beaver Creek,Hourglass Lake,http://www.wcc.nrcs.usda.gov/nwcc/site?sitenum=1122,05J11S  ,HRLC2,8
snotel,538,10/1/1979,1/1/2100,37.93,-107.68,9800,Snow Water Equivalent,CO,Ouray,Red Mountain Creek,Idarado,http://www.wcc.nrcs.usda.gov/nwcc/site?sitenum=538,07M27S  ,IDRC2,8
snotel,542,10/1/1979,1/1/2100,39.08,-106.61,10600,Snow Water Equivalent,CO,Pitkin,Lincoln Creek,Independence Pass,http://www.wcc.nrcs.usda.gov/nwcc/site?sitenum=542,06K04S  ,IDPC2,8
snotel,547,10/1/1991,1/1/2100,39.29,-106.55,10400,Snow Water Equivalent,CO,Pitkin,Headwaters Fryingpan River,Ivanhoe,http://www.wcc.nrcs.usda.gov/nwcc/site?sitenum=547,06K10S  ,IVHC2,8
snotel,935,8/10/1998,1/1/2100,39.57,-105.8,10960,Snow Water Equivalent,CO,Clear Creek,Geneva Creek,Jackwhacker Gulch,http://www.wcc.nrcs.usda.gov/nwcc/site?sitenum=935,05K26S  ,JWGC2,8
snotel,551,10/1/1978,1/1/2100,40.53,-105.89,10120,Snow Water Equivalent,CO,Larimer,Joe Wright Creek,Joe Wright,http://www.wcc.nrcs.usda.gov/nwcc/site?sitenum=551,05J37S  ,JWRC2,8
snotel,970,9/30/1999,1/1/2100,39.76,-105.91,10400,Snow Water Equivalent,CO,Grand,Headwaters Williams Fork,Jones Pass,http://www.wcc.nrcs.usda.gov/nwcc/site?sitenum=970,05K21S  ,JNPC2,8
snotel,556,10/1/1979,1/1/2100,39.32,-106.61,9600,Snow Water Equivalent,CO,Pitkin,Deeds Creek-Fryingpan River,Kiln,http://www.wcc.nrcs.usda.gov/nwcc/site?sitenum=556,06K30S  ,KLNC2,8
snotel,564,10/1/1978,1/1/2100,39.94,-105.59,9700,Snow Water Equivalent,CO,Gilpin,Middle Boulder Creek,Lake Eldora,http://www.wcc.nrcs.usda.gov/nwcc/site?sitenum=564,05J41S  ,LELC2,8
snotel,565,10/1/1978,1/1/2100,40.41,-105.82,10700,Snow Water Equivalent,CO,Grand,Headwaters Colorado River,Lake Irene,http://www.wcc.nrcs.usda.gov/nwcc/site?sitenum=565,05J10S  ,LKIC2,8
snotel,580,10/1/1979,1/1/2100,37.38,-106.55,11000,Snow Water Equivalent,CO,Conejos,Headwaters Alamosa River,Lily Pond,http://www.wcc.nrcs.usda.gov/nwcc/site?sitenum=580,06M23S  ,LPDC2,8
snotel,586,10/1/1979,1/1/2100,37.8,-107.92,10200,Snow Water Equivalent,CO,Dolores,Headwaters Dolores River,Lizard Head Pass,http://www.wcc.nrcs.usda.gov/nwcc/site?sitenum=586,07M29S  ,LIZC2,8
snotel,589,10/1/1979,1/1/2100,37.89,-108.2,9600,Snow Water Equivalent,CO,San Miguel,Headwaters Beaver Creek,Lone Cone,http://www.wcc.nrcs.usda.gov/nwcc/site?sitenum=589,08M07S  ,LNCC2,8
snotel,1123,10/16/2008,1/1/2100,40.51,-105.77,9980,Snow Water Equivalent,CO,Larimer,La Poudre Pass Creek,Long Draw Resv,http://www.wcc.nrcs.usda.gov/nwcc/site?sitenum=1123,05J27S  ,LRVC2,8
snotel,940,8/7/1998,1/1/2100,40.82,-106.75,9320,Snow Water Equivalent,CO,Routt,Outlet North Fork Elk Creek,Lost Dog,http://www.wcc.nrcs.usda.gov/nwcc/site?sitenum=940,06J38S  ,LOTC2,8
snotel,602,10/1/1991,1/1/2100,39.67,-105.9,11400,Snow Water Equivalent,CO,Clear Creek,Headwaters Clear Creek,Loveland Basin,http://www.wcc.nrcs.usda.gov/nwcc/site?sitenum=602,05K05S  ,LBAC2,8
snotel,607,10/1/1979,1/1/2100,40.08,-106.67,8880,Snow Water Equivalent,CO,Routt,Headwaters Rock Creek,Lynx Pass,http://www.wcc.nrcs.usda.gov/nwcc/site?sitenum=607,06J06S  ,LYNC2,8
snotel,905,8/30/1994,1/1/2100,37.43,-108.17,10000,Snow Water Equivalent,CO,Montezuma,West Mancos River,Mancos,http://www.wcc.nrcs.usda.gov/nwcc/site?sitenum=905,08M02S  ,MNCC2,8
snotel,618,10/1/1979,1/1/2100,39.13,-107.29,8760,Snow Water Equivalent,CO,Gunnison,Lee Creek,Mc Clure Pass,http://www.wcc.nrcs.usda.gov/nwcc/site?sitenum=618,07K09S  ,MCPC2,8
snotel,1040,10/1/2002,1/1/2100,39.6,-106.54,9480,Snow Water Equivalent,CO,Eagle,June Creek-Eagle River,Mccoy Park,http://www.wcc.nrcs.usda.gov/nwcc/site?sitenum=1040,06K44S  ,MCYC2,8
snotel,914,10/1/1995,1/1/2100,37.85,-105.44,9649,Snow Water Equivalent,CO,Saguache,Medano Creek,Medano Pass,http://www.wcc.nrcs.usda.gov/nwcc/site?sitenum=914,05M16S  ,MDPC2,8
snotel,622,10/1/1985,1/1/2100,39.06,-108.06,10000,Snow Water Equivalent,CO,Mesa,Coon Creek,Mesa Lakes,http://www.wcc.nrcs.usda.gov/nwcc/site?sitenum=622,08K04S  ,MESC2,8
snotel,937,8/10/1998,1/1/2100,39.44,-105.91,10600,Snow Water Equivalent,CO,Park,Michigan Creek,Michigan Creek,http://www.wcc.nrcs.usda.gov/nwcc/site?sitenum=937,05K28S  ,MIHC2,8
snotel,624,10/1/1979,1/1/2100,37.62,-107.03,11250,Snow Water Equivalent,CO,Mineral,Headwaters Red Mountain Creek,Middle Creek,http://www.wcc.nrcs.usda.gov/nwcc/site?sitenum=624,07M21S  ,MDLC2,8
snotel,1014,9/19/2001,1/1/2100,39.8,-106.03,8940,Snow Water Equivalent,CO,Grand,Headwaters Williams Fork,Middle Fork Camp,http://www.wcc.nrcs.usda.gov/nwcc/site?sitenum=1014,06K12S  ,MFKC2,8
snotel,629,10/1/1978,1/1/2100,37.85,-107.73,10040,Snow Water Equivalent,CO,San Juan,Mineral Creek,Mineral Creek,http://www.wcc.nrcs.usda.gov/nwcc/site?sitenum=629,07M14S  ,MINC2,8
snotel,632,10/1/1985,1/1/2100,37.75,-107.69,10500,Snow Water Equivalent,CO,San Juan,Tenmile Creek-Animas River,Molas Lake,http://www.wcc.nrcs.usda.gov/nwcc/site?sitenum=632,07M12S  ,MLSC2,8
snotel,1124,10/1/2008,1/1/2100,37.97,-106.56,11140,Snow Water Equivalent,CO,Saguache,California Gulch,Moon Pass,http://www.wcc.nrcs.usda.gov/nwcc/site?sitenum=1124,06M26S  ,MOPC2,8
snotel,658,10/1/1985,1/1/2100,39.3,-106.61,8700,Snow Water Equivalent,CO,Pitkin,Deeds Creek-Fryingpan River,Nast Lake,http://www.wcc.nrcs.usda.gov/nwcc/site?sitenum=658,06K06S  ,NSSC2,8
snotel,1031,9/9/2002,1/1/2100,40.4,-105.96,10280,Snow Water Equivalent,CO,Jackson,Jack Creek,Never Summer,http://www.wcc.nrcs.usda.gov/nwcc/site?sitenum=1031,06J27S  ,NEVC2,8
snotel,663,10/1/1979,1/1/2100,40.04,-105.54,9910,Snow Water Equivalent,CO,Boulder,North Boulder Creek,Niwot,http://www.wcc.nrcs.usda.gov/nwcc/site?sitenum=663,05J42S  ,NIWC2,8
snotel,669,10/1/1984,1/1/2100,39.08,-107.14,9200,Snow Water Equivalent,CO,Gunnison,Yule Creek-Crystal River,North Lost Trail,http://www.wcc.nrcs.usda.gov/nwcc/site?sitenum=669,07K01S  ,NLSC2,8
snotel,675,10/1/1988,1/1/2100,39.09,-107.63,9840,Snow Water Equivalent,CO,Delta,Cow Creek,Overland Res.,http://www.wcc.nrcs.usda.gov/nwcc/site?sitenum=675,07K14S  ,OVRC2,8
snotel,680,10/1/1979,1/1/2100,38.82,-106.59,9600,Snow Water Equivalent,CO,Gunnison,Taylor Park Reservoir,Park Cone,http://www.wcc.nrcs.usda.gov/nwcc/site?sitenum=680,06L02S  ,PKCC2,8
snotel,682,10/1/1978,1/1/2100,39.05,-107.87,9960,Snow Water Equivalent,CO,Delta,Surface Creek,Park Reservoir,http://www.wcc.nrcs.usda.gov/nwcc/site?sitenum=682,07K06S  ,PRVC2,8
snotel,688,10/1/1979,1/1/2100,40.4,-105.85,9030,Snow Water Equivalent,CO,Grand,Headwaters Colorado River,Phantom Valley,http://www.wcc.nrcs.usda.gov/nwcc/site?sitenum=688,05J04S  ,PHTC2,8
snotel,701,10/1/1978,1/1/2100,38.49,-106.34,10760,Snow Water Equivalent,CO,Gunnison,Porphyry Creek-Tomichi Creek,Porphyry Creek,http://www.wcc.nrcs.usda.gov/nwcc/site?sitenum=701,06L03S  ,PRPC2,8
snotel,709,10/1/1985,1/1/2100,40.37,-106.74,9400,Snow Water Equivalent,CO,Routt,Harrison Creek,Rabbit Ears,http://www.wcc.nrcs.usda.gov/nwcc/site?sitenum=709,06J09S  ,RESC2,8
snotel,1032,9/9/2002,1/1/2100,40.71,-106.01,9020,Snow Water Equivalent,CO,Jackson,Middle Canadian River,Rawah,http://www.wcc.nrcs.usda.gov/nwcc/site?sitenum=1032,06J20S  ,RAWC2,8
snotel,713,10/1/1979,1/1/2100,37.89,-107.71,11200,Snow Water Equivalent,CO,San Juan,Mineral Creek,Red Mountain Pass,http://www.wcc.nrcs.usda.gov/nwcc/site?sitenum=713,07M33S  ,RMPC2,8
snotel,717,10/1/1985,1/1/2100,40.11,-107.29,10340,Snow Water Equivalent,CO,Rio Blanco,Snell Creek-North Fork White River,Ripple Creek,http://www.wcc.nrcs.usda.gov/nwcc/site?sitenum=717,07J05S  ,RCPC2,8
snotel,718,10/1/1979,1/1/2100,40.88,-106.05,9700,Snow Water Equivalent,CO,Larimer,Laramie River-Stuck Creek,Roach,http://www.wcc.nrcs.usda.gov/nwcc/site?sitenum=718,06J12S  ,ROAC2,8
snotel,939,8/10/1998,1/1/2100,39.03,-106.08,10360,Snow Water Equivalent,CO,Park,Headwaters South Fork South Platte River,Rough And Tumble,http://www.wcc.nrcs.usda.gov/nwcc/site?sitenum=939,06K43S  ,ROUC2,8
snotel,1100,8/30/2007,1/1/2100,38.7,-106.37,10540,Snow Water Equivalent,CO,Chaffee,Headwaters Chalk Creek,Saint Elmo,http://www.wcc.nrcs.usda.gov/nwcc/site?sitenum=1100,06L05S  ,CTEC2,8
snotel,1128,10/1/2008,1/1/2100,38.29,-106.37,11530,Snow Water Equivalent,CO,Saguache,Middle Creek,Sargents Mesa,http://www.wcc.nrcs.usda.gov/nwcc/site?sitenum=1128,06L13S  ,SGMC2,8
snotel,1251,9/23/2014,1/1/2100,40.14,-105.59,9620,Snow Water Equivalent,CO,Boulder,Middle Saint Vrain Creek,Sawtooth,http://www.wcc.nrcs.usda.gov/nwcc/site?sitenum=1251,05J45S  ,SATC2,8
snotel,737,10/1/1984,1/1/2100,39.02,-107.05,10700,Snow Water Equivalent,CO,Gunnison,South Fork Crystal River,Schofield Pass,http://www.wcc.nrcs.usda.gov/nwcc/site?sitenum=737,07K11S  ,SOSC2,8
snotel,739,10/1/1985,1/1/2100,37.65,-108.01,9100,Snow Water Equivalent,CO,Dolores,Scotch Creek-Dolores River,Scotch Creek,http://www.wcc.nrcs.usda.gov/nwcc/site?sitenum=739,08M08S  ,SHSC2,8
snotel,1060,10/1/2004,1/1/2100,37.5,-108.11,10720,Snow Water Equivalent,CO,Montezuma,Bear Creek,Sharkstooth,http://www.wcc.nrcs.usda.gov/nwcc/site?sitenum=1060,08M04S  ,SKZC2,8
snotel,762,10/1/1979,1/1/2100,37.99,-107.2,11560,Snow Water Equivalent,CO,Hinsdale,Headwaters Cebolla Creek,Slumgullion,http://www.wcc.nrcs.usda.gov/nwcc/site?sitenum=762,07M30S  ,SLMC2,8
snotel,773,10/1/1990,1/1/2100,37.97,-105.54,10800,Snow Water Equivalent,CO,Custer,Colony Creek-Grape Creek,South Colony,http://www.wcc.nrcs.usda.gov/nwcc/site?sitenum=773,05M13S  ,SCYC2,8
snotel,780,10/1/1985,1/1/2100,37.7,-107.78,10660,Snow Water Equivalent,CO,San Juan,Lime Creek,Spud Mountain,http://www.wcc.nrcs.usda.gov/nwcc/site?sitenum=780,07M11S  ,SPSC2,8
snotel,793,10/1/1985,1/1/2100,40.23,-105.92,8720,Snow Water Equivalent,CO,Grand,Stillwater Creek,Stillwater Creek,http://www.wcc.nrcs.usda.gov/nwcc/site?sitenum=793,05J12S  ,SCSC2,8
snotel,797,10/1/1985,1/1/2100,37.48,-107.63,11200,Snow Water Equivalent,CO,San Juan,Virginia Gulch-Florida River,Stump Lakes,http://www.wcc.nrcs.usda.gov/nwcc/site?sitenum=797,07M34S  ,STPC2,8
snotel,802,10/1/1979,1/1/2100,39.72,-106.16,9400,Snow Water Equivalent,CO,Summit,Rock Creek-Blue River,Summit Ranch,http://www.wcc.nrcs.usda.gov/nwcc/site?sitenum=802,06K14S  ,SUMC2,8
snotel,825,10/1/1978,1/1/2100,40.54,-106.68,10500,Snow Water Equivalent,CO,Routt,Fish Creek,Tower,http://www.wcc.nrcs.usda.gov/nwcc/site?sitenum=825,06J29S  ,TOWC2,8
snotel,827,10/1/1985,1/1/2100,40,-107.24,9700,Snow Water Equivalent,CO,Garfield,Headwaters North Fork White River,Trapper Lake,http://www.wcc.nrcs.usda.gov/nwcc/site?sitenum=827,07K13S  ,TLSC2,8
snotel,829,10/1/1988,1/1/2100,37.35,-105.23,10860,Snow Water Equivalent,CO,Costilla,North Fork Trinchera Creek,Trinchera,http://www.wcc.nrcs.usda.gov/nwcc/site?sitenum=829,05M08S  ,TCHC2,8
snotel,838,10/1/1978,1/1/2100,40.03,-105.58,10300,Snow Water Equivalent,CO,Boulder,North Boulder Creek,University Camp,http://www.wcc.nrcs.usda.gov/nwcc/site?sitenum=838,05J08S  ,UVCC2,8
snotel,839,10/1/1985,1/1/2100,37.72,-107.26,9400,Snow Water Equivalent,CO,Hinsdale,Rio Grande Reservoir,Upper Rio Grande,http://www.wcc.nrcs.usda.gov/nwcc/site?sitenum=839,07M16S  ,URGC2,8
snotel,840,10/1/1978,1/1/2100,37.49,-106.84,10200,Snow Water Equivalent,CO,Mineral,Wolf Creek,Upper San Juan,http://www.wcc.nrcs.usda.gov/nwcc/site?sitenum=840,06M03S  ,USJC2,8
snotel,1141,8/26/2009,1/1/2100,38.99,-106.75,10640,Snow Water Equivalent,CO,Gunnison,Upper Taylor River,Upper Taylor,http://www.wcc.nrcs.usda.gov/nwcc/site?sitenum=1141,06L14S  ,UPTC2,8
snotel,1005,8/16/2000,1/1/2100,37.61,-105.37,10650,Snow Water Equivalent,CO,Costilla,East Fork Ute Creek,Ute Creek,http://www.wcc.nrcs.usda.gov/nwcc/site?sitenum=1005,05M17S  ,UTCC2,8
snotel,842,10/1/1978,1/1/2100,39.62,-106.38,10300,Snow Water Equivalent,CO,Eagle,Middle Gore Creek,Vail Mountain,http://www.wcc.nrcs.usda.gov/nwcc/site?sitenum=842,06K39S  ,VLMC2,8
snotel,843,10/1/1985,1/1/2100,37.49,-107.51,10880,Snow Water Equivalent,CO,La Plata,Indian Creek-Los Pinos River,Vallecito,http://www.wcc.nrcs.usda.gov/nwcc/site?sitenum=843,07M31S  ,VALC2,8
snotel,1188,7/28/2011,1/1/2100,37.88,-107.36,11100,Snow Water Equivalent,CO,Hinsdale,Lake Sanc Cristobal-Lake Fork,Wager Gulch,http://www.wcc.nrcs.usda.gov/nwcc/site?sitenum=1188,07M37S  ,WRGC2,8
snotel,1160,10/1/2010,1/1/2100,37.52,-107.32,10740,Snow Water Equivalent,CO,Archuleta,Sand Creek,Weminuche Creek,http://www.wcc.nrcs.usda.gov/nwcc/site?sitenum=1160,07M36S  ,WMNC2,8
snotel,857,10/1/1979,1/1/2100,37.21,-105.12,10220,Snow Water Equivalent,CO,Las Animas,North Fork Purgatoire River,Whiskey Ck,http://www.wcc.nrcs.usda.gov/nwcc/site?sitenum=857,05M14S  ,WSKC2,8
snotel,1042,12/13/2002,1/1/2100,40.2,-105.6,9560,Snow Water Equivalent,CO,Boulder,Headwaters North Saint Vrain Creek,Wild Basin,http://www.wcc.nrcs.usda.gov/nwcc/site?sitenum=1042,05J05S  ,WLBC2,8
snotel,869,10/1/1978,1/1/2100,40.35,-106.09,9540,Snow Water Equivalent,CO,Grand,Upper Willow Creek,Willow Creek Pass,http://www.wcc.nrcs.usda.gov/nwcc/site?sitenum=869,06J05S  ,WLLC2,8
snotel,870,10/1/1979,1/1/2100,40.43,-105.73,10700,Snow Water Equivalent,CO,Larimer,Fall River,Willow Park,http://www.wcc.nrcs.usda.gov/nwcc/site?sitenum=870,05J40S  ,WPRC2,8
snotel,874,10/1/1985,1/1/2100,37.48,-106.8,11000,Snow Water Equivalent,CO,Mineral,Wolf Creek,Wolf Creek Summit,http://www.wcc.nrcs.usda.gov/nwcc/site?sitenum=874,06M17S  ,WCSC2,8
snotel,1033,8/14/2002,1/1/2100,40.79,-106.6,9340,Snow Water Equivalent,CO,Jackson,Middle North Fork North Platte River,Zirkel,http://www.wcc.nrcs.usda.gov/nwcc/site?sitenum=1033,06J19S  ,ZIRC2,8
snotel,306,10/1/1978,1/1/2100,43.76,-115.24,7580,Snow Water Equivalent,ID,Elmore,Bald Mountain Creek-Middle Fork Boise River,Atlanta Summit,http://www.wcc.nrcs.usda.gov/nwcc/site?sitenum=306,15F04S  ,ATAI1,8
snotel,312,10/1/1979,1/1/2100,44.3,-115.23,7040,Snow Water Equivalent,ID,Boise,Canyon Creek,Banner Summit,http://www.wcc.nrcs.usda.gov/nwcc/site?sitenum=312,15E11S  ,BASI1,8
snotel,319,10/1/1979,1/1/2100,44.95,-116.14,5350,Snow Water Equivalent,ID,Adams,Upper Goose Creek,Bear Basin,http://www.wcc.nrcs.usda.gov/nwcc/site?sitenum=319,16E11S  ,BRBI1,8
snotel,320,10/1/1979,1/1/2100,43.74,-113.94,7900,Snow Water Equivalent,ID,Custer,Upper Star Hope Creek,Bear Canyon,http://www.wcc.nrcs.usda.gov/nwcc/site?sitenum=320,13F03S  ,BECI1,8
snotel,323,10/1/1979,1/1/2100,48.31,-116.07,5400,Snow Water Equivalent,ID,Bonner,Middle Lightning Creek,Bear Mountain,http://www.wcc.nrcs.usda.gov/nwcc/site?sitenum=323,16A08S  ,BRMI1,8
snotel,324,10/1/1979,1/1/2100,44.61,-116.98,6180,Snow Water Equivalent,ID,Washington,Upper Mann Creek,Bear Saddle,http://www.wcc.nrcs.usda.gov/nwcc/site?sitenum=324,16E10S  ,BSDI1,8
snotel,338,10/1/1979,1/1/2100,44.63,-115.8,6560,Snow Water Equivalent,ID,Valley,Curtis Creek,Big Creek Summit,http://www.wcc.nrcs.usda.gov/nwcc/site?sitenum=338,15E02S  ,BKSI1,8
snotel,978,9/21/1999,1/1/2100,43.76,-116.1,6340,Snow Water Equivalent,ID,Boise,Cottonwood Creek-Shafer Creek,Bogus Basin,http://www.wcc.nrcs.usda.gov/nwcc/site?sitenum=978,16F02S  ,BOGI1,8
snotel,359,10/1/1979,1/1/2100,42.16,-114.19,7500,Snow Water Equivalent,ID,Cassia,Upper Big Cottonwood Creek,Bostetter R.S.,http://www.wcc.nrcs.usda.gov/nwcc/site?sitenum=359,14G01S  ,BTRI1,8
snotel,370,10/1/1986,1/1/2100,45.04,-116.13,6250,Snow Water Equivalent,ID,Adams,Upper Goose Creek,Brundage Reservoir,http://www.wcc.nrcs.usda.gov/nwcc/site?sitenum=370,16D09S  ,BRRI1,8
snotel,382,10/1/1991,1/1/2100,43.27,-115.35,5710,Snow Water Equivalent,ID,Elmore,Sheep Creek-Camas Creek,Camas Creek Divide,http://www.wcc.nrcs.usda.gov/nwcc/site?sitenum=382,15F09S  ,CCDI1,8
snotel,895,6/23/1993,1/1/2100,43.77,-114.42,6310,Snow Water Equivalent,ID,Blaine,Eagle Creek-Big Wood River,Chocolate Gulch,http://www.wcc.nrcs.usda.gov/nwcc/site?sitenum=895,14F19S  ,CHOI1,8
snotel,411,10/1/1983,1/1/2100,46.76,-115.3,6280,Snow Water Equivalent,ID,Clearwater,Cold Springs Creek-North Fork Clearwater River,Cool Creek,http://www.wcc.nrcs.usda.gov/nwcc/site?sitenum=411,15C16S  ,COLI1,8
snotel,1306,10/6/2021,1/1/2100,43.52,-114.8,6800,Snow Water Equivalent,ID,Camas,Lower Little Smoky Creek,Couch Summit,http://www.wcc.nrcs.usda.gov/nwcc/site?sitenum=1306,        ,     ,8
snotel,423,10/1/1978,1/1/2100,44.29,-115.66,5400,Snow Water Equivalent,ID,Valley,Deadwood River-Deadwood Reservoir,Cozy Cove,http://www.wcc.nrcs.usda.gov/nwcc/site?sitenum=423,15E08S  ,COZI1,8
snotel,424,10/1/1979,1/1/2100,44.44,-111.99,6900,Snow Water Equivalent,ID,Clark,Upper Camas Creek,Crab Creek,http://www.wcc.nrcs.usda.gov/nwcc/site?sitenum=424,11E37S  ,CRBI1,8
snotel,425,10/1/1983,1/1/2100,46.56,-115.29,5960,Snow Water Equivalent,ID,Clearwater,Middle Weitas Creek,Crater Meadows,http://www.wcc.nrcs.usda.gov/nwcc/site?sitenum=425,15C09S  ,CRAI1,8
snotel,439,10/1/1978,1/1/2100,44.55,-115.56,6860,Snow Water Equivalent,ID,Valley,Stratton Creek-Deadwood River,Deadwood Summit,http://www.wcc.nrcs.usda.gov/nwcc/site?sitenum=439,15E04S  ,DDSI1,8
snotel,450,10/1/1979,1/1/2100,43.6,-114.67,8420,Snow Water Equivalent,ID,Blaine,Placer Creek-Warm Springs Creek,Dollarhide Summit,http://www.wcc.nrcs.usda.gov/nwcc/site?sitenum=450,14F08S  ,DHDI1,8
snotel,466,10/1/1982,1/1/2100,46.84,-116.12,5690,Snow Water Equivalent,ID,Clearwater,Upper Elk Creek,Elk Butte,http://www.wcc.nrcs.usda.gov/nwcc/site?sitenum=466,16C20S  ,ELBI1,8
snotel,471,10/1/1979,1/1/2100,42.36,-111.56,7390,Snow Water Equivalent,ID,Bear Lake,Williams Creek,Emigrant Summit,http://www.wcc.nrcs.usda.gov/nwcc/site?sitenum=471,11G06S  ,EMSI1,8
snotel,1305,9/30/2021,1/1/2100,43.56,-113.72,6330,Snow Water Equivalent,ID,Blaine,Upper Fish Creek,Fish Ck,http://www.wcc.nrcs.usda.gov/nwcc/site?sitenum=1305,        ,     ,8
snotel,484,10/1/1978,1/1/2100,42.05,-111.6,8140,Snow Water Equivalent,ID,Franklin,Upper Cub River,Franklin Basin,http://www.wcc.nrcs.usda.gov/nwcc/site?sitenum=484,11G32S  ,FBNI1,8
snotel,489,10/1/1979,1/1/2100,43.88,-114.67,7470,Snow Water Equivalent,ID,Blaine,Headwaters Big Wood River,Galena,http://www.wcc.nrcs.usda.gov/nwcc/site?sitenum=489,14F17S  ,GLNI1,8
snotel,490,10/1/1978,1/1/2100,43.87,-114.71,8780,Snow Water Equivalent,ID,Blaine,Headwaters Big Wood River,Galena Summit,http://www.wcc.nrcs.usda.gov/nwcc/site?sitenum=490,14F12S  ,GLSI1,8
snotel,492,10/1/1979,1/1/2100,43.61,-113.93,6560,Snow Water Equivalent,ID,Blaine,Upper Muldoon Creek,Garfield R.S.,http://www.wcc.nrcs.usda.gov/nwcc/site?sitenum=492,13F04S  ,GARI1,8
snotel,493,10/1/1979,1/1/2100,42.41,-111.17,6930,Snow Water Equivalent,ID,Bear Lake,Upper Montpelier Creek,Giveout,http://www.wcc.nrcs.usda.gov/nwcc/site?sitenum=493,11G33S  ,GIVI1,8
snotel,496,10/1/1978,1/1/2100,43.95,-115.27,5690,Snow Water Equivalent,ID,Elmore,Big Silver Creek-North Fork Boise River,Graham Guard Sta.,http://www.wcc.nrcs.usda.gov/nwcc/site?sitenum=496,15F14S  ,GGSI1,8
snotel,520,10/1/1982,1/1/2100,46.48,-115.63,5810,Snow Water Equivalent,ID,Clearwater,French Creek,Hemlock Butte,http://www.wcc.nrcs.usda.gov/nwcc/site?sitenum=520,15C06S  ,HEMI1,8
snotel,988,9/20/2000,1/1/2100,48.89,-116.76,5040,Snow Water Equivalent,ID,Boundary,Cow Creek,Hidden Lake,http://www.wcc.nrcs.usda.gov/nwcc/site?sitenum=988,16A12S  ,HDLI1,8
snotel,524,10/1/1979,1/1/2100,44.02,-113.47,8000,Snow Water Equivalent,ID,Custer,Upper Wet Creek,Hilts Creek,http://www.wcc.nrcs.usda.gov/nwcc/site?sitenum=524,13E27S  ,HLTI1,8
snotel,534,10/1/1978,1/1/2100,42.32,-113.62,7980,Snow Water Equivalent,ID,Cassia,Howell Creek,Howell Canyon,http://www.wcc.nrcs.usda.gov/nwcc/site?sitenum=534,13G01S  ,HWCI1,8
snotel,535,10/1/1978,1/1/2100,47.53,-115.78,4250,Snow Water Equivalent,ID,Shoshone,Canyon Creek-Upper South Fork Coeur d'Alene River,Humboldt Gulch,http://www.wcc.nrcs.usda.gov/nwcc/site?sitenum=535,15B21S  ,HUGI1,8
snotel,537,10/1/1979,1/1/2100,43.71,-114.16,7620,Snow Water Equivalent,ID,Blaine,Hyndman Creek,Hyndman,http://www.wcc.nrcs.usda.gov/nwcc/site?sitenum=537,14F16S  ,HYNI1,8
snotel,546,10/1/1979,1/1/2100,44.42,-111.39,6290,Snow Water Equivalent,ID,Fremont,Split Creek,Island Park,http://www.wcc.nrcs.usda.gov/nwcc/site?sitenum=546,11E10S  ,ISPI1,8
snotel,550,10/1/1979,1/1/2100,44.05,-115.44,7070,Snow Water Equivalent,ID,Boise,Fivemile Creek-South Fork Payette River,Jackson Peak,http://www.wcc.nrcs.usda.gov/nwcc/site?sitenum=550,15E09S  ,JKPI1,8
snotel,588,10/1/1982,1/1/2100,46.63,-114.58,5240,Snow Water Equivalent,ID,Idaho,West Fork Lolo Creek,Lolo Pass,http://www.wcc.nrcs.usda.gov/nwcc/site?sitenum=588,14C05S  ,LPSI1,8
snotel,1016,10/1/2001,1/1/2100,44.79,-116.09,4890,Snow Water Equivalent,ID,Valley,Lake Fork Creek,Long Valley,http://www.wcc.nrcs.usda.gov/nwcc/site?sitenum=1016,16E18S  ,LGVI1,8
snotel,594,10/1/1978,1/1/2100,47.46,-115.7,5190,Snow Water Equivalent,ID,Shoshone,Little North Fork South Fork Coeur d'Alene River-South Fork Coeur d'Alene River,Lookout,http://www.wcc.nrcs.usda.gov/nwcc/site?sitenum=594,15B02S  ,LKTI1,8
snotel,600,10/1/1979,1/1/2100,47.08,-115.96,6110,Snow Water Equivalent,ID,Shoshone,Lost Lake-Little North Fork Clearwater River,Lost Lake,http://www.wcc.nrcs.usda.gov/nwcc/site?sitenum=600,15B14S  ,LSLI1,8
snotel,601,10/1/1979,1/1/2100,43.82,-114.26,7900,Snow Water Equivalent,ID,Blaine,Trail Creek,Lost-Wood Divide,http://www.wcc.nrcs.usda.gov/nwcc/site?sitenum=601,14F03S  ,LWDI1,8
snotel,610,10/1/1979,1/1/2100,42.18,-114.29,6880,Snow Water Equivalent,ID,Twin Falls,Headwaters Rock Creek,Magic Mountain,http://www.wcc.nrcs.usda.gov/nwcc/site?sitenum=610,14G02S  ,MGMI1,8
snotel,620,10/1/1979,1/1/2100,44.44,-113.32,9150,Snow Water Equivalent,ID,Lemhi,Upper Texas Creek,Meadow Lake,http://www.wcc.nrcs.usda.gov/nwcc/site?sitenum=620,13E18S  ,MDLI1,8
snotel,623,10/1/1989,1/1/2100,47.15,-116.27,4510,Snow Water Equivalent,ID,Shoshone,Mica Creek,Mica Creek,http://www.wcc.nrcs.usda.gov/nwcc/site?sitenum=623,16B14S  ,MCKI1,8
snotel,627,10/1/1978,1/1/2100,44.47,-114.49,8800,Snow Water Equivalent,ID,Custer,Upper Yankee Fork,Mill Creek Summit,http://www.wcc.nrcs.usda.gov/nwcc/site?sitenum=627,14E01S  ,MLKI1,8
snotel,636,10/1/1979,1/1/2100,44.41,-113.4,7440,Snow Water Equivalent,ID,Lemhi,Upper Sawmill Creek,Moonshine,http://www.wcc.nrcs.usda.gov/nwcc/site?sitenum=636,13E06S  ,MNSI1,8
snotel,638,10/1/1979,1/1/2100,45.67,-113.95,6200,Snow Water Equivalent,ID,Lemhi,Upper North Fork Salmon River,Moose Creek,http://www.wcc.nrcs.usda.gov/nwcc/site?sitenum=638,13D16S  ,MOKI1,8
snotel,637,10/1/1978,1/1/2100,43.93,-115.67,6100,Snow Water Equivalent,ID,Boise,Middle Crooked River,Mores Creek Summit,http://www.wcc.nrcs.usda.gov/nwcc/site?sitenum=637,15F01S  ,MRKI1,8
snotel,639,10/1/1979,1/1/2100,44.84,-114.27,7600,Snow Water Equivalent,ID,Lemhi,Headwaters Panther Creek,Morgan Creek,http://www.wcc.nrcs.usda.gov/nwcc/site?sitenum=639,14E04S  ,MRGI1,8
snotel,989,10/1/2000,1/1/2100,46.81,-116.85,4700,Snow Water Equivalent,ID,Latah,Little Bear Creek,Moscow Mountain,http://www.wcc.nrcs.usda.gov/nwcc/site?sitenum=989,16C02S  ,MSCI1,8
snotel,645,10/1/1978,1/1/2100,48.06,-116.23,5260,Snow Water Equivalent,ID,Shoshone,Upper North Fork Coeur d'Alene River,Mosquito Ridge,http://www.wcc.nrcs.usda.gov/nwcc/site?sitenum=645,16A04S  ,MOQI1,8
snotel,650,10/1/1979,1/1/2100,45.7,-115.23,6320,Snow Water Equivalent,ID,Idaho,Headwaters Meadow Creek,Mountain Meadows,http://www.wcc.nrcs.usda.gov/nwcc/site?sitenum=650,15D06S  ,MTMI1,8
snotel,654,10/1/1979,1/1/2100,42.6,-116.56,5730,Snow Water Equivalent,ID,Owyhee,Upper Pole Creek,Mud Flat,http://www.wcc.nrcs.usda.gov/nwcc/site?sitenum=654,16G07S  ,MDFI1,8
snotel,1053,10/1/2003,1/1/2100,48.72,-116.46,3520,Snow Water Equivalent,ID,Boundary,Myrtle Creek,Myrtle Creek,http://www.wcc.nrcs.usda.gov/nwcc/site?sitenum=1053,16A14S  ,MYRI1,8
snotel,677,10/1/1979,1/1/2100,42.26,-112.13,6740,Snow Water Equivalent,ID,Oneida,Lower Deep Creek,Oxford Spring,http://www.wcc.nrcs.usda.gov/nwcc/site?sitenum=677,12G18S  ,OXSI1,8
snotel,1299,6/16/2021,1/1/2100,42.77,-112.11,6513,Snow Water Equivalent,ID,Caribou,Pebble Creek,Pebble Creek,http://www.wcc.nrcs.usda.gov/nwcc/site?sitenum=1299,        ,     ,8
snotel,1142,9/29/2009,1/1/2100,46.5,-115.8,3080,Snow Water Equivalent,ID,Clearwater,Upper Orofino Creek,Pierce R.S.,http://www.wcc.nrcs.usda.gov/nwcc/site?sitenum=1142,15C05S  ,PRNI1,8
snotel,695,10/1/1988,1/1/2100,43.57,-111.21,6720,Snow Water Equivalent,ID,Teton,Upper Trail Creek,Pine Creek Pass,http://www.wcc.nrcs.usda.gov/nwcc/site?sitenum=695,11F02S  ,PCPI1,8
snotel,704,10/1/1979,1/1/2100,43.51,-115.57,4800,Snow Water Equivalent,ID,Elmore,Lower Smith Creek,Prairie,http://www.wcc.nrcs.usda.gov/nwcc/site?sitenum=704,15F06S  ,PRAI1,8
snotel,1081,8/22/2006,1/1/2100,47.86,-117.04,4210,Snow Water Equivalent,ID,Kootenai,Rathdrum Creek,Ragged Mountain,http://www.wcc.nrcs.usda.gov/nwcc/site?sitenum=1081,17B06S  ,RAGI1,8
snotel,2029,8/31/1999,1/1/2100,43.29,-116.84,5600,Snow Water Equivalent,ID,Owyhee,Lower Reynolds Creek,Reynolds Creek,http://www.wcc.nrcs.usda.gov/nwcc/site?sitenum=2029,16F08S  ,RYCI1,8
snotel,735,10/1/1982,1/1/2100,46.47,-114.63,6190,Snow Water Equivalent,ID,Idaho,Lower Colt Killed Creek,Savage Pass,http://www.wcc.nrcs.usda.gov/nwcc/site?sitenum=735,14C04S  ,SVPI1,8
snotel,915,9/26/1995,1/1/2100,44.85,-113.84,8630,Snow Water Equivalent,ID,Lemhi,Basin Creek,Schwartz Lake,http://www.wcc.nrcs.usda.gov/nwcc/site?sitenum=915,13E16S  ,SCHI1,8
snotel,738,10/1/1979,1/1/2100,48.37,-116.64,6090,Snow Water Equivalent,ID,Bonner,Middle Fork East River-East River,Schweitzer Basin,http://www.wcc.nrcs.usda.gov/nwcc/site?sitenum=738,16A10S  ,STZI1,8
snotel,1038,9/16/2002,7/15/2008,48.37,-116.64,6110,Snow Water Equivalent,ID,Bonner,Middle Fork East River-East River,Schweitzer Saddle,http://www.wcc.nrcs.usda.gov/nwcc/site?sitenum=1038,16A13S  ,SCWI1,8
snotel,740,10/1/1979,1/1/2100,45.19,-115.97,6540,Snow Water Equivalent,ID,Valley,Headwaters North Fork Payette River,Secesh Summit,http://www.wcc.nrcs.usda.gov/nwcc/site?sitenum=740,15D01S  ,SCSI1,8
snotel,741,10/1/1988,1/1/2100,42.52,-111.96,7850,Snow Water Equivalent,ID,Bannock,Dempsey Creek,Sedgwick Peak,http://www.wcc.nrcs.usda.gov/nwcc/site?sitenum=741,11G30S  ,SEPI1,8
snotel,747,10/1/1982,1/1/2100,46.57,-115.74,4600,Snow Water Equivalent,ID,Clearwater,Quartz Creek,Shanghi Summit,http://www.wcc.nrcs.usda.gov/nwcc/site?sitenum=747,15C04S  ,SHAI1,8
snotel,749,10/1/1978,1/1/2100,43.21,-111.69,6650,Snow Water Equivalent,ID,Bingham,Horse Creek-Willow Creek,Sheep Mtn.,http://www.wcc.nrcs.usda.gov/nwcc/site?sitenum=749,11F11S  ,SPMI1,8
snotel,752,10/1/1979,1/1/2100,46.95,-116.34,3200,Snow Water Equivalent,ID,Latah,West Fork St Maries River,Sherwin,http://www.wcc.nrcs.usda.gov/nwcc/site?sitenum=752,16C01S  ,SHWI1,8
snotel,761,10/1/1978,1/1/2100,42.56,-111.3,7225,Snow Water Equivalent,ID,Caribou,Headwaters Slug Creek,Slug Creek Divide,http://www.wcc.nrcs.usda.gov/nwcc/site?sitenum=761,11G05S  ,SLGI1,8
snotel,926,9/19/2001,1/1/2100,43.73,-113.83,9520,Snow Water Equivalent,ID,Custer,Lower Star Hope Creek,Smiley Mountain,http://www.wcc.nrcs.usda.gov/nwcc/site?sitenum=926,13F13S  ,SMMI1,8
snotel,769,10/1/1986,1/1/2100,43.48,-114.83,5740,Snow Water Equivalent,ID,Camas,Upper Soldier Creek,Soldier R.S.,http://www.wcc.nrcs.usda.gov/nwcc/site?sitenum=769,14F11S  ,SRSI1,8
snotel,770,10/1/1978,1/1/2100,42.95,-111.36,6800,Snow Water Equivalent,ID,Caribou,Upper Lanes Creek,Somsen Ranch,http://www.wcc.nrcs.usda.gov/nwcc/site?sitenum=770,11G01S  ,SORI1,8
snotel,774,10/1/1978,1/1/2100,42.76,-116.9,6500,Snow Water Equivalent,ID,Owyhee,Deer Creek-Big Boulder Creek,South Mtn.,http://www.wcc.nrcs.usda.gov/nwcc/site?sitenum=774,16G01S  ,SMTI1,8
snotel,782,10/1/1979,1/1/2100,44.77,-116.25,6240,Snow Water Equivalent,ID,Adams,Granite Creek-Middle Fork Weiser River,Squaw Flat,http://www.wcc.nrcs.usda.gov/nwcc/site?sitenum=782,16E05S  ,SQFI1,8
snotel,792,10/1/1979,1/1/2100,43.86,-114.21,7430,Snow Water Equivalent,ID,Custer,Summit Creek,Stickney Mill,http://www.wcc.nrcs.usda.gov/nwcc/site?sitenum=792,14F02S  ,STMI1,8
snotel,803,10/1/1978,1/1/2100,47.56,-115.82,5540,Snow Water Equivalent,ID,Shoshone,Canyon Creek-Upper South Fork Coeur d'Alene River,Sunset,http://www.wcc.nrcs.usda.gov/nwcc/site?sitenum=803,15B09S  ,SNSI1,8
snotel,805,10/1/1978,1/1/2100,43.63,-113.97,7640,Snow Water Equivalent,ID,Blaine,Upper Muldoon Creek,Swede Peak,http://www.wcc.nrcs.usda.gov/nwcc/site?sitenum=805,13F09S  ,SWPI1,8
snotel,830,10/1/1978,1/1/2100,43.63,-115.44,7770,Snow Water Equivalent,ID,Elmore,Roaring River,Trinity Mtn.,http://www.wcc.nrcs.usda.gov/nwcc/site?sitenum=830,15F05S  ,TRMI1,8
snotel,979,10/1/2000,1/1/2100,44.38,-116.34,4920,Snow Water Equivalent,ID,Washington,Lower North Crane Creek,Van Wyck,http://www.wcc.nrcs.usda.gov/nwcc/site?sitenum=979,16E14S  ,VWGI1,8
snotel,845,10/1/1978,1/1/2100,43.8,-114.85,8960,Snow Water Equivalent,ID,Blaine,Smiley Creek,Vienna Mine,http://www.wcc.nrcs.usda.gov/nwcc/site?sitenum=845,14F04S  ,VNNI1,8
snotel,855,10/1/1979,1/1/2100,45.07,-116.45,5560,Snow Water Equivalent,ID,Adams,Upper Weiser River,West Branch,http://www.wcc.nrcs.usda.gov/nwcc/site?sitenum=855,16D08S  ,WBRI1,8
snotel,860,10/1/1979,1/1/2100,44.53,-111.41,7710,Snow Water Equivalent,ID,Fremont,Island Park Reservoir,White Elephant,http://www.wcc.nrcs.usda.gov/nwcc/site?sitenum=860,11E36S  ,WHEI1,8
snotel,867,10/1/1979,1/1/2100,42.76,-112.48,6490,Snow Water Equivalent,ID,Bannock,Mink Creek,Wildhorse Divide,http://www.wcc.nrcs.usda.gov/nwcc/site?sitenum=867,12G17S  ,WHDI1,8
snotel,871,10/1/1989,1/1/2100,42.01,-115,7120,Snow Water Equivalent,ID,Twin Falls,Upper Wilson Creek,Wilson Creek,http://www.wcc.nrcs.usda.gov/nwcc/site?sitenum=871,15G02S  ,WLCI1,8
snotel,916,9/11/1996,1/1/2100,45.6,-111.96,8300,Snow Water Equivalent,MT,Madison,South Willow Creek,Albro Lake,http://www.wcc.nrcs.usda.gov/nwcc/site?sitenum=916,11D28S  ,ABRM8,8
snotel,307,10/1/1978,1/1/2100,48.13,-113.02,6900,Snow Water Equivalent,MT,Pondera,North Badger Creek,Badger Pass,http://www.wcc.nrcs.usda.gov/nwcc/site?sitenum=307,13A15S  ,BADM8,8
snotel,311,10/1/1968,1/1/2100,48.57,-115.45,5600,Snow Water Equivalent,MT,Lincoln,Bristow Creek,Banfield Mountain,http://www.wcc.nrcs.usda.gov/nwcc/site?sitenum=311,15A08S  ,BANM8,8
snotel,313,10/1/1979,1/1/2100,46.1,-113.13,8250,Snow Water Equivalent,MT,Deer Lodge,Warm Springs Creek-West Valley,Barker Lakes,http://www.wcc.nrcs.usda.gov/nwcc/site?sitenum=313,13C44S  ,BRLM8,8
snotel,315,10/1/1979,1/1/2100,45.8,-112.52,7180,Snow Water Equivalent,MT,Silver Bow,Basin Creek,Basin Creek,http://www.wcc.nrcs.usda.gov/nwcc/site?sitenum=315,12D09S  ,BSCM8,8
snotel,318,10/1/1978,1/1/2100,44.47,-112.98,8850,Snow Water Equivalent,MT,Beaverhead,Upper Nicholia Creek,Beagle Springs,http://www.wcc.nrcs.usda.gov/nwcc/site?sitenum=318,12E08S  ,BEAM8,8
snotel,328,10/1/1966,1/1/2100,44.95,-111.36,7850,Snow Water Equivalent,MT,Gallatin,Upper Beaver Creek,Beaver Creek,http://www.wcc.nrcs.usda.gov/nwcc/site?sitenum=328,11E38S  ,BEVM8,8
snotel,346,10/1/1989,1/1/2100,47.68,-114,4920,Snow Water Equivalent,MT,Lake,Mud Creek,Bisson Creek,http://www.wcc.nrcs.usda.gov/nwcc/site?sitenum=346,13B25S  ,BISM8,8
snotel,347,10/1/1971,1/1/2100,44.51,-111.13,8170,Snow Water Equivalent,MT,Gallatin,Madison Arm-Madison River,Black Bear,http://www.wcc.nrcs.usda.gov/nwcc/site?sitenum=347,11E35S  ,BLBM8,8
snotel,349,10/1/1965,1/1/2100,46.41,-113.43,7210,Snow Water Equivalent,MT,Granite,Marshall Creek,Black Pine,http://www.wcc.nrcs.usda.gov/nwcc/site?sitenum=349,13C13S  ,BLKM8,8
snotel,1144,8/25/2010,1/1/2100,47.98,-114.35,5650,Snow Water Equivalent,MT,Flathead,Ronan Creek,Blacktail Mtn,http://www.wcc.nrcs.usda.gov/nwcc/site?sitenum=1144,14B04S  ,BLTM8,8
snotel,355,10/1/1976,1/1/2100,45.17,-113.5,7600,Snow Water Equivalent,MT,Beaverhead,Upper Bloody Dick Creek,Bloody Dick,http://www.wcc.nrcs.usda.gov/nwcc/site?sitenum=355,13D10S  ,BLOM8,8
snotel,360,10/1/1978,1/1/2100,46.56,-111.29,7950,Snow Water Equivalent,MT,Meagher,Upper Camas Creek,Boulder Mountain,http://www.wcc.nrcs.usda.gov/nwcc/site?sitenum=360,11C01S  ,BOMM8,8
snotel,363,10/1/1978,1/1/2100,45.27,-110.25,6670,Snow Water Equivalent,MT,Park,Headwaters Boulder River,Box Canyon,http://www.wcc.nrcs.usda.gov/nwcc/site?sitenum=363,10D31S  ,BOXM8,8
snotel,365,9/30/1994,1/1/2100,45.89,-110.94,7320,Snow Water Equivalent,MT,Gallatin,Upper Brackett Creek,Brackett Creek,http://www.wcc.nrcs.usda.gov/nwcc/site?sitenum=365,10D35S  ,BRCM8,8
snotel,981,10/1/2000,1/1/2100,45.24,-109.46,5880,Snow Water Equivalent,MT,Carbon,Sand Creek,Burnt Mtn,http://www.wcc.nrcs.usda.gov/nwcc/site?sitenum=981,09D21S  ,BMTM8,8
snotel,381,10/1/1975,1/1/2100,45.88,-113.33,6430,Snow Water Equivalent,MT,Deer Lodge,Fishtrap Creek,Calvert Creek,http://www.wcc.nrcs.usda.gov/nwcc/site?sitenum=381,13D26S  ,CLVM8,8
snotel,385,10/1/1966,1/1/2100,44.96,-111.29,9000,Snow Water Equivalent,MT,Gallatin,Specimen Creek,Carrot Basin,http://www.wcc.nrcs.usda.gov/nwcc/site?sitenum=385,11E29S  ,CRRM8,8
snotel,403,10/1/1978,1/1/2100,45.02,-111.85,8600,Snow Water Equivalent,MT,Madison,Ruby Creek,Clover Meadow,http://www.wcc.nrcs.usda.gov/nwcc/site?sitenum=403,11D08S  ,CMDM8,8
snotel,407,1/1/1971,1/1/2100,45.19,-109.35,7850,Snow Water Equivalent,MT,Carbon,Skunk Creek-Clarks Fork Yellowstone Creek,Cole Creek,http://www.wcc.nrcs.usda.gov/nwcc/site?sitenum=407,09D16S  ,CLCM8,8
snotel,410,10/1/1972,1/1/2100,46.47,-113.39,5600,Snow Water Equivalent,MT,Granite,Upper South Fork Lower Middle Creek,Combination,http://www.wcc.nrcs.usda.gov/nwcc/site?sitenum=410,13C33S  ,CMBM8,8
snotel,413,10/1/1975,1/1/2100,47.06,-112.6,5200,Snow Water Equivalent,MT,Lewis And Clark,Copper Creek,Copper Bottom,http://www.wcc.nrcs.usda.gov/nwcc/site?sitenum=413,12B16S  ,COPM8,8
snotel,414,10/1/1971,1/1/2100,47.08,-112.73,6950,Snow Water Equivalent,MT,Lewis And Clark,Copper Creek,Copper Camp,http://www.wcc.nrcs.usda.gov/nwcc/site?sitenum=414,12B14S  ,CPCM8,8
snotel,427,10/1/1978,1/1/2100,46.79,-109.51,6050,Snow Water Equivalent,MT,Fergus,Big Rock Creek,Crystal Lake,http://www.wcc.nrcs.usda.gov/nwcc/site?sitenum=427,09C01S  ,CRYM8,8
snotel,919,10/1/1990,1/1/2100,46.67,-110.33,7600,Snow Water Equivalent,MT,Meagher,Mud Creek,Daisy Peak,http://www.wcc.nrcs.usda.gov/nwcc/site?sitenum=919,10C15S  ,DAZM8,8
snotel,433,10/1/1979,1/1/2100,46.18,-113.85,5780,Snow Water Equivalent,MT,Ravalli,Daly Creek,Daly Creek,http://www.wcc.nrcs.usda.gov/nwcc/site?sitenum=433,13C39S  ,DALM8,8
snotel,436,10/1/1979,1/1/2100,45.17,-113.58,8945,Snow Water Equivalent,MT,Beaverhead,Headwaters Big Hole River,Darkhorse Lake,http://www.wcc.nrcs.usda.gov/nwcc/site?sitenum=436,13D19S  ,DHLM8,8
snotel,437,10/1/1967,1/1/2100,46.79,-110.68,6450,Snow Water Equivalent,MT,Meagher,Headwaters Sheep Creek,Deadman Creek,http://www.wcc.nrcs.usda.gov/nwcc/site?sitenum=437,10C09S  ,DDMM8,8
snotel,448,1/1/1971,1/1/2100,44.79,-112.06,7800,Snow Water Equivalent,MT,Madison,Headwaters Ruby River,Divide,http://www.wcc.nrcs.usda.gov/nwcc/site?sitenum=448,12E07S  ,DIVM8,8
snotel,458,10/1/1982,1/1/2100,48.06,-112.76,5750,Snow Water Equivalent,MT,Teton,Upper Dupuyer Creek,Dupuyer Creek,http://www.wcc.nrcs.usda.gov/nwcc/site?sitenum=458,12A02S  ,DPYM8,8
snotel,1105,6/19/2008,1/1/2100,45.5,-110.08,6335,Snow Water Equivalent,MT,Sweet Grass,Upper East Boulder River,East Boulder Mine,http://www.wcc.nrcs.usda.gov/nwcc/site?sitenum=1105,10D39S  ,EBMM8,8
snotel,1106,7/9/2008,1/1/2100,46.48,-110.71,7600,Snow Water Equivalent,MT,Meagher,Alabaugh Creek,Elk Peak,http://www.wcc.nrcs.usda.gov/nwcc/site?sitenum=1106,10C27S  ,WHSM8,8
snotel,469,10/1/1976,1/1/2100,48.43,-113.94,4350,Snow Water Equivalent,MT,Flathead,Hungry Horse Creek,Emery Creek,http://www.wcc.nrcs.usda.gov/nwcc/site?sitenum=469,13A24S  ,EMCM8,8
snotel,480,10/1/1966,1/1/2100,45.06,-109.94,9100,Snow Water Equivalent,MT,Park,Hoodoo Creek,Fisher Creek,http://www.wcc.nrcs.usda.gov/nwcc/site?sitenum=480,09D06S  ,FSHM8,8
snotel,482,10/1/1969,1/1/2100,48.8,-113.86,6300,Snow Water Equivalent,MT,Flathead,McDonald Creek Headwaters,Flattop Mtn.,http://www.wcc.nrcs.usda.gov/nwcc/site?sitenum=482,13A19S  ,FTMM8,8
snotel,487,10/1/1972,1/1/2100,46.44,-112.19,6480,Snow Water Equivalent,MT,Jefferson,Lump Gulch,Frohner Meadow,http://www.wcc.nrcs.usda.gov/nwcc/site?sitenum=487,12C13S  ,FRHM8,8
snotel,918,10/1/1968,1/1/2100,48.98,-115.82,4250,Snow Water Equivalent,MT,Lincoln,Upper West Fork Yaak River,Garver Creek,http://www.wcc.nrcs.usda.gov/nwcc/site?sitenum=918,15A05S  ,GVRM8,8
snotel,500,1/1/1971,1/1/2100,48.91,-114.77,4300,Snow Water Equivalent,MT,Flathead,Upper Grave Creek,Grave Creek,http://www.wcc.nrcs.usda.gov/nwcc/site?sitenum=500,14A11S  ,GRCM8,8
snotel,510,10/1/1976,1/1/2100,48.31,-114.84,5035,Snow Water Equivalent,MT,Flathead,Squaw Meadows Creek,Hand Creek,http://www.wcc.nrcs.usda.gov/nwcc/site?sitenum=510,14A14S  ,HANM8,8
snotel,516,10/1/1968,1/1/2100,48.97,-115.95,6450,Snow Water Equivalent,MT,Lincoln,South Fork Hawkins Creek-Hawkins Creek,Hawkins Lake,http://www.wcc.nrcs.usda.gov/nwcc/site?sitenum=516,15A03S  ,HAWM8,8
snotel,530,10/1/1966,1/1/2100,46.98,-115.03,6050,Snow Water Equivalent,MT,Mineral,Upper Trout Creek,Hoodoo Basin,http://www.wcc.nrcs.usda.gov/nwcc/site?sitenum=530,15C10S  ,HOOM8,8
snotel,1287,9/27/2018,1/1/2100,44.78,-113.12,8800,Snow Water Equivalent,MT,Beaverhead,Dad Creek-Medicine Lodge Creek,JL Meadow,http://www.wcc.nrcs.usda.gov/nwcc/site?sitenum=1287,        ,JLMM8,8
snotel,562,10/1/1979,1/1/2100,47.43,-113.78,4750,Snow Water Equivalent,MT,Missoula,Kraft Creek,Kraft Creek,http://www.wcc.nrcs.usda.gov/nwcc/site?sitenum=562,13B22S  ,KRCM8,8
snotel,568,10/1/1978,1/1/2100,44.59,-111.82,7400,Snow Water Equivalent,MT,Beaverhead,Odell Creek,Lakeview Ridge,http://www.wcc.nrcs.usda.gov/nwcc/site?sitenum=568,11E03S  ,LVRM8,8
snotel,576,1/1/1971,1/1/2100,44.99,-113.44,8100,Snow Water Equivalent,MT,Beaverhead,Trail Creek,Lemhi Ridge,http://www.wcc.nrcs.usda.gov/nwcc/site?sitenum=576,13E23S  ,LMHM8,8
snotel,578,10/1/1963,1/1/2100,45.5,-110.97,6860,Snow Water Equivalent,MT,Gallatin,Upper Hyalite Creek,Lick Creek,http://www.wcc.nrcs.usda.gov/nwcc/site?sitenum=578,10D13S  ,LCKM8,8
snotel,590,10/1/1988,1/1/2100,45.27,-111.43,8880,Snow Water Equivalent,MT,Madison,South Fork West Fork Gallatin River,Lone Mountain,http://www.wcc.nrcs.usda.gov/nwcc/site?sitenum=590,11D19S  ,BSKM8,8
snotel,603,10/1/1979,1/1/2100,45.51,-111.92,7900,Snow Water Equivalent,MT,Madison,Upper North Meadow Creek,Lower Twin,http://www.wcc.nrcs.usda.gov/nwcc/site?sitenum=603,11D11S  ,LWTM8,8
snotel,604,10/1/1970,1/1/2100,46.88,-113.32,4680,Snow Water Equivalent,MT,Missoula,Placid Lake,Lubrecht Flume,http://www.wcc.nrcs.usda.gov/nwcc/site?sitenum=604,13C38S  ,LUBM8,8
snotel,609,10/1/1967,1/1/2100,44.59,-111.12,7750,Snow Water Equivalent,MT,Gallatin,Middle South Fork Madison River,Madison Plateau,http://www.wcc.nrcs.usda.gov/nwcc/site?sitenum=609,11E31S  ,MPLM8,8
snotel,613,10/1/1976,1/1/2100,48.8,-113.67,4900,Snow Water Equivalent,MT,Glacier,Swiftcurrent Lake,Many Glacier,http://www.wcc.nrcs.usda.gov/nwcc/site?sitenum=613,13A27S  ,MANM8,8
snotel,635,10/1/1979,1/1/2100,45.22,-110.24,8850,Snow Water Equivalent,MT,Park,Headwaters Boulder River,Monument Peak,http://www.wcc.nrcs.usda.gov/nwcc/site?sitenum=635,10D12S  ,MNPM8,8
snotel,646,10/1/1984,1/1/2100,47.68,-113.96,6780,Snow Water Equivalent,MT,Lake,Polson,Moss Peak,http://www.wcc.nrcs.usda.gov/nwcc/site?sitenum=646,13B24S  ,MSPM8,8
snotel,649,10/1/1968,1/1/2100,47.92,-112.82,6400,Snow Water Equivalent,MT,Teton,Middle North Fork Teton River,Mount Lockhart,http://www.wcc.nrcs.usda.gov/nwcc/site?sitenum=649,12B12S  ,MTKM8,8
snotel,656,10/1/1979,1/1/2100,45.41,-112.96,8300,Snow Water Equivalent,MT,Beaverhead,Birch Creek,Mule Creek,http://www.wcc.nrcs.usda.gov/nwcc/site?sitenum=656,12D11S  ,MULM8,8
snotel,657,10/1/1967,1/1/2100,46.87,-113.28,6250,Snow Water Equivalent,MT,Powell,Placid Lake,N Fk Elk Creek,http://www.wcc.nrcs.usda.gov/nwcc/site?sitenum=657,13C31S  ,NFEM8,8
snotel,903,10/1/1993,1/1/2100,46.84,-112.51,7020,Snow Water Equivalent,MT,Lewis And Clark,Poorman Creek,Nevada Ridge,http://www.wcc.nrcs.usda.gov/nwcc/site?sitenum=903,12C22S  ,NVRM8,8
snotel,662,10/1/1976,1/1/2100,45.73,-114.48,5650,Snow Water Equivalent,MT,Ravalli,Nez Pierce Fork-Nelson Lake,Nez Perce Camp,http://www.wcc.nrcs.usda.gov/nwcc/site?sitenum=662,14D02S  ,NZCM8,8
snotel,664,1/1/1971,1/1/2100,48.16,-113.95,6040,Snow Water Equivalent,MT,Flathead,Lower Ashley Creek,Noisy Basin,http://www.wcc.nrcs.usda.gov/nwcc/site?sitenum=664,13A25S  ,NOIM8,8
snotel,667,10/1/1988,1/1/2100,47.27,-113.76,6330,Snow Water Equivalent,MT,Missoula,Middle Fork Jocko River,North Fork Jocko,http://www.wcc.nrcs.usda.gov/nwcc/site?sitenum=667,13B07S  ,NFJM8,8
snotel,670,10/1/1966,1/1/2100,45.01,-110.01,7350,Snow Water Equivalent,MT,Yellowstone National Park,Cold Creek,Northeast Entrance,http://www.wcc.nrcs.usda.gov/nwcc/site?sitenum=670,10D07S  ,NORM8,8
snotel,1008,10/1/1993,1/1/2100,46.91,-110.85,7410,Snow Water Equivalent,MT,Meagher,Upper Tenderfoot Creek,Onion Park,http://www.wcc.nrcs.usda.gov/nwcc/site?sitenum=1008,10C22S  ,ONPM8,8
snotel,930,10/1/1970,1/1/2100,46.13,-113.31,7200,Snow Water Equivalent,MT,Granite,Silver Lake,Peterson Meadows,http://www.wcc.nrcs.usda.gov/nwcc/site?sitenum=930,13C36S  ,PTNM8,8
snotel,690,10/1/1978,1/1/2100,46.58,-111.27,6650,Snow Water Equivalent,MT,Meagher,Upper Camas Creek,Pickfoot Creek,http://www.wcc.nrcs.usda.gov/nwcc/site?sitenum=690,11C02S  ,PCKM8,8
snotel,693,10/1/1976,1/1/2100,48.3,-113.33,5930,Snow Water Equivalent,MT,Pondera,Upper South Fork Two Medicine River,Pike Creek,http://www.wcc.nrcs.usda.gov/nwcc/site?sitenum=693,13A26S  ,PICM8,8
snotel,696,10/1/1979,1/1/2100,45.42,-110.09,8830,Snow Water Equivalent,MT,Sweet Grass,Upper East Boulder River,Placer Basin,http://www.wcc.nrcs.usda.gov/nwcc/site?sitenum=696,10D24S  ,PLCM8,8
snotel,932,10/1/1968,1/1/2100,48.13,-115.62,5100,Snow Water Equivalent,MT,Lincoln,Upper Libby Creek,Poorman Creek,http://www.wcc.nrcs.usda.gov/nwcc/site?sitenum=932,15A12S  ,PMNM8,8
snotel,700,10/1/1976,1/1/2100,46.11,-110.47,6500,Snow Water Equivalent,MT,Park,Porcupine Creek,Porcupine,http://www.wcc.nrcs.usda.gov/nwcc/site?sitenum=700,10C03S  ,PRPM8,8
snotel,722,10/1/1967,1/1/2100,46.36,-112.26,8000,Snow Water Equivalent,MT,Jefferson,Cataract Creek,Rocker Peak,http://www.wcc.nrcs.usda.gov/nwcc/site?sitenum=722,12C11S  ,RKPM8,8
snotel,917,10/1/1967,1/1/2100,48.17,-109.65,4700,Snow Water Equivalent,MT,Hill,Upper Beaver Creek,Rocky Boy,http://www.wcc.nrcs.usda.gov/nwcc/site?sitenum=917,09A01S  ,ROCM8,8
snotel,725,10/1/1978,1/1/2100,46.09,-110.43,8100,Snow Water Equivalent,MT,Park,Bennett Creek-Shields River,S Fork Shields,http://www.wcc.nrcs.usda.gov/nwcc/site?sitenum=725,10C08S  ,SFSM8,8
snotel,929,9/30/1999,1/1/2100,45.87,-110.93,6550,Snow Water Equivalent,MT,Gallatin,Upper Brackett Creek,Sacajawea,http://www.wcc.nrcs.usda.gov/nwcc/site?sitenum=929,10D10S  ,SAJM8,8
snotel,727,10/1/1967,1/1/2100,45.69,-113.97,7940,Snow Water Equivalent,MT,Beaverhead,Camp Creek,Saddle Mtn.,http://www.wcc.nrcs.usda.gov/nwcc/site?sitenum=727,13D22S  ,SDMM8,8
snotel,753,10/1/1987,1/1/2100,44.98,-111.95,7000,Snow Water Equivalent,MT,Madison,Lazyman Creek-Ruby River,Short Creek,http://www.wcc.nrcs.usda.gov/nwcc/site?sitenum=753,11E39S  ,SHCM8,8
snotel,754,10/1/1965,1/1/2100,45.4,-110.96,8100,Snow Water Equivalent,MT,Gallatin,Upper Hyalite Creek,Shower Falls,http://www.wcc.nrcs.usda.gov/nwcc/site?sitenum=754,10D16S  ,SHFM8,8
snotel,760,10/1/1976,1/1/2100,46.24,-113.77,7250,Snow Water Equivalent,MT,Granite,Middle West Fork Ross Creek,Skalkaho Summit,http://www.wcc.nrcs.usda.gov/nwcc/site?sitenum=760,13C03S  ,SKAM8,8
snotel,1286,9/14/2020,1/1/2100,45.37,-113.72,8620,Snow Water Equivalent,MT,Beaverhead,Big Swamp Creek,Slagamelt Lakes,http://www.wcc.nrcs.usda.gov/nwcc/site?sitenum=1286,        ,SLMM8,8
snotel,783,10/1/1989,1/1/2100,47.18,-114.33,6150,Snow Water Equivalent,MT,Sanders,East Fork Valley Creek,Sleeping Woman,http://www.wcc.nrcs.usda.gov/nwcc/site?sitenum=783,14B05S  ,SQPM8,8
snotel,781,10/1/1966,1/1/2100,46.78,-110.62,8100,Snow Water Equivalent,MT,Judith Basin,Cleveland Creek,Spur Park,http://www.wcc.nrcs.usda.gov/nwcc/site?sitenum=781,10C06S  ,SPRM8,8
snotel,787,1/1/1971,1/1/2100,48.91,-114.86,6030,Snow Water Equivalent,MT,Lincoln,Upper Grave Creek,Stahl Peak,http://www.wcc.nrcs.usda.gov/nwcc/site?sitenum=787,14A12S  ,STAM8,8
snotel,1009,10/1/1995,1/1/2100,46.93,-110.9,6550,Snow Water Equivalent,MT,Meagher,Upper Tenderfoot Creek,Stringer Creek,http://www.wcc.nrcs.usda.gov/nwcc/site?sitenum=1009,10C23S  ,STCM8,8
snotel,901,7/26/1994,1/1/2100,47,-113.93,7400,Snow Water Equivalent,MT,Missoula,Lower Rattlesnake Creek,Stuart Mountain,http://www.wcc.nrcs.usda.gov/nwcc/site?sitenum=901,13C01S  ,STTM8,8
snotel,813,10/1/1971,1/1/2100,44.79,-111.71,8000,Snow Water Equivalent,MT,Madison,Middle West Fork Madison River,Tepee Creek,http://www.wcc.nrcs.usda.gov/nwcc/site?sitenum=813,11E24S  ,TPEM8,8
snotel,893,10/1/1987,1/1/2100,46.35,-111.85,6880,Snow Water Equivalent,MT,Jefferson,Headwaters Crow Creek,Tizer Basin,http://www.wcc.nrcs.usda.gov/nwcc/site?sitenum=893,11C04S  ,TIBM8,8
snotel,835,10/1/1967,1/1/2100,46.14,-114.45,5600,Snow Water Equivalent,MT,Ravalli,Lost Horse Creek,Twelvemile Creek,http://www.wcc.nrcs.usda.gov/nwcc/site?sitenum=835,14C13S  ,TMCM8,8
snotel,836,10/1/1967,1/1/2100,46.14,-114.51,6400,Snow Water Equivalent,MT,Ravalli,Lost Horse Creek,Twin Lakes,http://www.wcc.nrcs.usda.gov/nwcc/site?sitenum=836,14C12S  ,TWLM8,8
snotel,847,10/1/1968,1/1/2100,47.92,-112.79,5600,Snow Water Equivalent,MT,Teton,Middle North Fork Teton River,Waldron,http://www.wcc.nrcs.usda.gov/nwcc/site?sitenum=847,12B13S  ,CHUM8,8
snotel,850,10/1/1977,1/1/2100,46.27,-113.16,7800,Snow Water Equivalent,MT,Granite,Headwaters Warm Springs Creek,Warm Springs,http://www.wcc.nrcs.usda.gov/nwcc/site?sitenum=850,13C43S  ,WRMM8,8
snotel,924,10/1/1966,1/1/2100,44.66,-111.09,6700,Snow Water Equivalent,MT,Gallatin,Lower South Fork Madison River,West Yellowstone,http://www.wcc.nrcs.usda.gov/nwcc/site?sitenum=924,11E07S  ,WYSM8,8
snotel,858,10/1/1971,1/1/2100,44.61,-111.15,6800,Snow Water Equivalent,MT,Gallatin,Upper South Fork Madison River,Whiskey Creek,http://www.wcc.nrcs.usda.gov/nwcc/site?sitenum=858,11E30S  ,WSKM8,8
snotel,862,10/1/1973,1/1/2100,45.05,-109.91,8700,Snow Water Equivalent,MT,Park,Hoodoo Creek,White Mill,http://www.wcc.nrcs.usda.gov/nwcc/site?sitenum=862,09D08S  ,WHTM8,8
snotel,876,10/1/1978,1/1/2100,47.45,-112.81,5960,Snow Water Equivalent,MT,Lewis And Clark,Wood Creek,Wood Creek,http://www.wcc.nrcs.usda.gov/nwcc/site?sitenum=876,12B17S  ,WODM8,8
snotel,316,10/1/1978,1/1/2100,36.51,-106.32,9300,Snow Water Equivalent,NM,Rio Arriba,Montoya Canyon-Canjilon Creek,Bateman,http://www.wcc.nrcs.usda.gov/nwcc/site?sitenum=316,06N04S  ,BAMN5,8
snotel,394,10/1/1978,1/1/2100,36.96,-106.66,8400,Snow Water Equivalent,NM,Rio Arriba,Rio Chamita,Chamita,http://www.wcc.nrcs.usda.gov/nwcc/site?sitenum=394,06N03S  ,CHAN5,8
snotel,921,10/1/1996,1/1/2100,35.7,-105.81,8210,Snow Water Equivalent,NM,Santa Fe,Headwaters Santa Fe River,Elk Cabin,http://www.wcc.nrcs.usda.gov/nwcc/site?sitenum=921,05P04S  ,ELCN5,8
snotel,486,10/1/1978,1/1/2100,33.74,-108.95,8000,Snow Water Equivalent,NM,Catron,Stone Creek-San Francisco River,Frisco Divide,http://www.wcc.nrcs.usda.gov/nwcc/site?sitenum=486,08S01S  ,FRDN5,8
snotel,491,10/1/1979,1/1/2100,36.19,-105.56,9800,Snow Water Equivalent,NM,Taos,Headwaters Rio Grande de Rancho,Gallegos Peak,http://www.wcc.nrcs.usda.gov/nwcc/site?sitenum=491,05N18S  ,GLGN5,8
snotel,1173,9/23/2016,1/1/2100,36.01,-106.55,10160,Snow Water Equivalent,NM,Rio Arriba,Headwaters San Antonio Creek,Garita Peak,http://www.wcc.nrcs.usda.gov/nwcc/site?sitenum=1173,06N17S  ,GAPN5,8
snotel,532,10/1/1978,1/1/2100,36.72,-106.26,10000,Snow Water Equivalent,NM,Rio Arriba,Jarosa Creek-Rio Vallecitos,Hopewell,http://www.wcc.nrcs.usda.gov/nwcc/site?sitenum=532,06N14S  ,HPWN5,8
snotel,595,10/1/1978,1/1/2100,33.36,-107.83,8500,Snow Water Equivalent,NM,Sierra,Taylor Creek,Lookout Mountain,http://www.wcc.nrcs.usda.gov/nwcc/site?sitenum=595,07S04S  ,LKTN5,8
snotel,1048,9/25/2003,1/1/2100,33.01,-107.87,9240,Snow Water Equivalent,NM,Grant,Sheppard Canyon-Mimbres River,Mcknight Cabin,http://www.wcc.nrcs.usda.gov/nwcc/site?sitenum=1048,07S03S  ,MCKN5,8
snotel,1138,5/12/2009,1/1/2100,36.18,-108.95,9050,Snow Water Equivalent,NM,San Juan,Whiskey Creek (Local Drainage),Navajo Whiskey Ck,http://www.wcc.nrcs.usda.gov/nwcc/site?sitenum=1138,08N03S  ,WCTN5,8
snotel,665,10/1/1978,1/1/2100,36.99,-105.26,10600,Snow Water Equivalent,NM,Taos,Casias Creek-Costillo Creek,North Costilla,http://www.wcc.nrcs.usda.gov/nwcc/site?sitenum=665,05N16S  ,NCSN5,8
snotel,1170,8/9/2010,1/1/2100,36.41,-105.33,9350,Snow Water Equivalent,NM,Taos,Headwaters Rio Fernando del Taos,Palo,http://www.wcc.nrcs.usda.gov/nwcc/site?sitenum=1170,05N13S  ,TACN5,8
snotel,708,10/1/1979,1/1/2100,35.92,-106.39,9500,Snow Water Equivalent,NM,Los Alamos,Los Alamos Canyon,Quemazon,http://www.wcc.nrcs.usda.gov/nwcc/site?sitenum=708,06P01S  ,QMZN5,8
snotel,715,10/1/1978,1/1/2100,36.7,-105.34,9850,Snow Water Equivalent,NM,Colfax,Upper Red River,Red River Pass #2,http://www.wcc.nrcs.usda.gov/nwcc/site?sitenum=715,05N11S  ,RRPN5,8
snotel,933,8/10/1998,1/1/2100,35.23,-108.27,8460,Snow Water Equivalent,NM,Cibola,Sawyer Creek,Rice Park,http://www.wcc.nrcs.usda.gov/nwcc/site?sitenum=933,08P03S  ,RPRN5,8
snotel,1254,9/24/2013,1/1/2100,36.07,-105.63,10664,Snow Water Equivalent,NM,Taos,Outlet Rio Santa Barbara,Rio Santa Barbara,http://www.wcc.nrcs.usda.gov/nwcc/site?sitenum=1254,05N24S  ,SBAN5,8
snotel,1172,7/14/2011,1/1/2100,36.86,-106.23,9100,Snow Water Equivalent,NM,Rio Arriba,Canada Tio Grande-Rio San Antonio,San Antonio Sink,http://www.wcc.nrcs.usda.gov/nwcc/site?sitenum=1172,06N15S  ,SSCN5,8
snotel,922,10/1/1996,1/1/2100,35.77,-105.78,11445,Snow Water Equivalent,NM,Santa Fe,Headwaters Santa Fe River,Santa Fe,http://www.wcc.nrcs.usda.gov/nwcc/site?sitenum=922,05P09S  ,SFSN5,8
snotel,744,10/1/1979,1/1/2100,36,-106.83,8600,Snow Water Equivalent,NM,Rio Arriba,Headwaters Rio de Las Vacas,Senorita Divide #2,http://www.wcc.nrcs.usda.gov/nwcc/site?sitenum=744,06P10S  ,SENN5,8
snotel,1169,8/9/2010,1/1/2100,36.79,-105.24,10100,Snow Water Equivalent,NM,Colfax,Comanche Creek,Shuree,http://www.wcc.nrcs.usda.gov/nwcc/site?sitenum=1169,05N23S  ,SHUN5,8
snotel,1034,10/1/2002,1/1/2100,33.4,-105.79,10280,Snow Water Equivalent,NM,Lincoln,Upper Rio Ruidoso,Sierra Blanca,http://www.wcc.nrcs.usda.gov/nwcc/site?sitenum=1034,05R01S  ,SIEN5,8
snotel,755,10/1/1978,1/1/2100,32.92,-108.15,8360,Snow Water Equivalent,NM,Grant,Lake Roberts-Sapillo Creek,Signal Peak,http://www.wcc.nrcs.usda.gov/nwcc/site?sitenum=755,08T01S  ,SGNN5,8
snotel,757,10/1/1978,1/1/2100,33.37,-108.71,9000,Snow Water Equivalent,NM,Catron,Mineral Creek,Silver Creek Divide,http://www.wcc.nrcs.usda.gov/nwcc/site?sitenum=757,08S08S  ,SCDN5,8
snotel,1168,8/9/2010,1/1/2100,36.58,-105.46,11057,Snow Water Equivalent,NM,Taos,Headwaters Arroyo Hondo,Taos Powderhorn,http://www.wcc.nrcs.usda.gov/nwcc/site?sitenum=1168,05N14S  ,TABN5,8
snotel,1307,9/23/2021,1/1/2100,36.54,-105.36,11020,Snow Water Equivalent,NM,Colfax,La Junta Creek-Rio Pueblo de Taos,Taos Pueblo,http://www.wcc.nrcs.usda.gov/nwcc/site?sitenum=1307,        ,TPSN5,8
snotel,934,8/10/1998,1/1/2100,36.47,-105.19,10180,Snow Water Equivalent,NM,Colfax,Ute Creek-Cimarron River,Tolby,http://www.wcc.nrcs.usda.gov/nwcc/site?sitenum=934,05N19S  ,TOLN5,8
snotel,1083,9/14/2006,1/1/2100,36.13,-105.53,8600,Snow Water Equivalent,NM,Taos,Osha Canyon-Rio Pueblo,Tres Ritos,http://www.wcc.nrcs.usda.gov/nwcc/site?sitenum=1083,05N04S  ,TREN5,8
snotel,1017,10/1/2001,1/1/2100,36.03,-106.81,9306,Snow Water Equivalent,NM,Rio Arriba,Headwaters Rio de Las Vacas,Vacas Locas,http://www.wcc.nrcs.usda.gov/nwcc/site?sitenum=1017,06N16S  ,VACN5,8
snotel,854,10/1/1988,1/1/2100,35.78,-105.54,11120,Snow Water Equivalent,NM,San Miguel,Porvenir Canyon-Gallinas Creek,Wesner Springs,http://www.wcc.nrcs.usda.gov/nwcc/site?sitenum=854,05P08S  ,WSSN5,8
snotel,321,10/1/1978,1/1/2100,41.83,-115.45,8040,Snow Water Equivalent,NV,Elko,West Fork Pine Creek-Jarbidge River,Bear Creek,http://www.wcc.nrcs.usda.gov/nwcc/site?sitenum=321,15H01S  ,BERN2,8
snotel,334,10/1/1979,1/1/2100,39.32,-114.62,9377,Snow Water Equivalent,NV,White Pine,Berry Creek,Berry Creek,http://www.wcc.nrcs.usda.gov/nwcc/site?sitenum=334,14K02S  ,BRCN2,8
snotel,336,10/1/1978,1/1/2100,41.76,-115.69,6898,Snow Water Equivalent,NV,Elko,Martin Creek,Big Bend,http://www.wcc.nrcs.usda.gov/nwcc/site?sitenum=336,15H04S  ,BIGN2,8
snotel,337,10/1/1979,1/1/2100,39.29,-117.12,8685,Snow Water Equivalent,NV,Lander,Big Creek,Big Creek Sum,http://www.wcc.nrcs.usda.gov/nwcc/site?sitenum=337,17K04S  ,BCSN2,8
snotel,340,10/1/1983,1/1/2100,39.45,-119.94,8235,Snow Water Equivalent,NV,Washoe,Hunter Creek-Truckee River,Big Meadow,http://www.wcc.nrcs.usda.gov/nwcc/site?sitenum=340,19K08S  ,BMWN2,8
snotel,1155,7/26/2011,1/1/2100,39.46,-114.65,7537,Snow Water Equivalent,NV,White Pine,Timber Creek-Duck Creek,Bird Creek,http://www.wcc.nrcs.usda.gov/nwcc/site?sitenum=1155,14K01S  ,BIRN2,8
snotel,1111,6/2/2008,1/1/2100,36.32,-115.7,8890,Snow Water Equivalent,NV,Clark,Lee Canyon,Bristlecone Trail,http://www.wcc.nrcs.usda.gov/nwcc/site?sitenum=1111,15N09S  ,BRSN2,8
snotel,373,10/1/1979,1/1/2100,41.75,-117.53,6930,Snow Water Equivalent,NV,Humboldt,Cabin Creek-Martin Creek,Buckskin Lower,http://www.wcc.nrcs.usda.gov/nwcc/site?sitenum=373,17H02S  ,BKLN2,8
snotel,1152,7/27/2011,1/1/2100,39.16,-114.61,10578,Snow Water Equivalent,NV,White Pine,Bastian Creek,Cave Mountain,http://www.wcc.nrcs.usda.gov/nwcc/site?sitenum=1152,14K08S  ,CAVN2,8
snotel,417,10/1/1978,1/1/2100,40.28,-115.54,8445,Snow Water Equivalent,NV,Elko,Corral Creek,Corral Canyon,http://www.wcc.nrcs.usda.gov/nwcc/site?sitenum=417,15J12S  ,COLN2,8
snotel,443,10/1/1983,1/1/2100,39.56,-115.84,8017,Snow Water Equivalent,NV,Eureka,Torre Creek-Slough Creek-Frontal Diamond Valley,Diamond Peak,http://www.wcc.nrcs.usda.gov/nwcc/site?sitenum=443,15K03S  ,DPKN2,8
snotel,445,10/1/1979,1/1/2100,41.97,-118.19,6260,Snow Water Equivalent,NV,Humboldt,Sage Creek,Disaster Peak,http://www.wcc.nrcs.usda.gov/nwcc/site?sitenum=445,18H01S  ,DSPN2,8
snotel,453,10/1/1978,1/1/2100,40.89,-115.21,7903,Snow Water Equivalent,NV,Elko,Lower Secret Creek,Dorsey Basin,http://www.wcc.nrcs.usda.gov/nwcc/site?sitenum=453,15J01S  ,DRBN2,8
snotel,454,10/1/1982,1/1/2100,41.66,-115.32,7332,Snow Water Equivalent,NV,Elko,Upper T Creek,Draw Creek,http://www.wcc.nrcs.usda.gov/nwcc/site?sitenum=454,15H24S  ,DRCN2,8
snotel,1243,7/8/2013,1/1/2100,40.86,-115.22,6555,Snow Water Equivalent,NV,Elko,Upper Secret Creek,Dry Creek,http://www.wcc.nrcs.usda.gov/nwcc/site?sitenum=1243,15J03S  ,DRKN2,8
snotel,476,10/1/1979,1/1/2100,41.82,-116.1,7031,Snow Water Equivalent,NV,Elko,Fawn Creek-Owyhee River,Fawn Creek,http://www.wcc.nrcs.usda.gov/nwcc/site?sitenum=476,16H08S  ,FWCN2,8
snotel,1262,10/8/2014,1/1/2100,41.57,-115.94,6798,Snow Water Equivalent,NV,Elko,Headwaters North Fork Humboldt River,Fry Canyon,http://www.wcc.nrcs.usda.gov/nwcc/site?sitenum=1262,15H07S  ,FRYN2,8
snotel,1195,9/12/2011,1/1/2100,40.88,-117.59,6616,Snow Water Equivalent,NV,Humboldt,Pole Creek,Golconda,http://www.wcc.nrcs.usda.gov/nwcc/site?sitenum=1195,17J02S  ,GLCN2,8
snotel,498,10/1/1979,1/1/2100,41.67,-117.57,8503,Snow Water Equivalent,NV,Humboldt,Indian Creek,Granite Peak,http://www.wcc.nrcs.usda.gov/nwcc/site?sitenum=498,17H08S  ,GRPN2,8
snotel,503,10/1/1978,1/1/2100,40.38,-115.53,8185,Snow Water Equivalent,NV,Elko,Corral Creek,Green Mountain,http://www.wcc.nrcs.usda.gov/nwcc/site?sitenum=503,15J09S  ,GRMN2,8
snotel,527,10/1/1979,1/1/2100,40.94,-115.1,8163,Snow Water Equivalent,NV,Elko,Winchell Creek-The Slough,Hole-in-Mountain,http://www.wcc.nrcs.usda.gov/nwcc/site?sitenum=527,15J15S  ,HIMN2,8
snotel,548,10/1/1978,1/1/2100,41.55,-116.01,7377,Snow Water Equivalent,NV,Elko,Upper Harrington Creek,Jack Creek Upper,http://www.wcc.nrcs.usda.gov/nwcc/site?sitenum=548,16H02S  ,JCUN2,8
snotel,549,10/1/1993,1/1/2100,41.51,-116.01,8424,Snow Water Equivalent,NV,Elko,Upper Harrington Creek,Jacks Peak,http://www.wcc.nrcs.usda.gov/nwcc/site?sitenum=549,16H04S  ,JAPN2,8
snotel,1150,7/29/2011,1/1/2100,39.56,-114.63,7775,Snow Water Equivalent,NV,White Pine,Lower Spring Valley Creek,Kalamazoo,http://www.wcc.nrcs.usda.gov/nwcc/site?sitenum=1150,14K10S  ,KALN2,8
snotel,569,10/1/1979,1/1/2100,41.52,-117.63,6395,Snow Water Equivalent,NV,Humboldt,Lamance Creek-Big Cottonwood Creek,Lamance Creek,http://www.wcc.nrcs.usda.gov/nwcc/site?sitenum=569,17H07S  ,LMCN2,8
snotel,570,10/1/1979,1/1/2100,40.64,-115.38,8051,Snow Water Equivalent,NV,Elko,Thomas Creek-Lamoille Creek,Lamoille #3,http://www.wcc.nrcs.usda.gov/nwcc/site?sitenum=570,15J06S  ,LMLN2,8
snotel,573,10/1/1978,1/1/2100,41.78,-116.03,6682,Snow Water Equivalent,NV,Elko,Trail Creek,Laurel Draw,http://www.wcc.nrcs.usda.gov/nwcc/site?sitenum=573,16H05S  ,LADN2,8
snotel,1112,6/2/2008,1/1/2100,36.31,-115.68,8626,Snow Water Equivalent,NV,Clark,Lee Canyon,Lee Canyon,http://www.wcc.nrcs.usda.gov/nwcc/site?sitenum=1112,15N10S  ,LCAN2,8
snotel,1006,8/21/2000,1/1/2100,40.36,-116.86,7370,Snow Water Equivalent,NV,Lander,Trout Creek,Lewis Peak,http://www.wcc.nrcs.usda.gov/nwcc/site?sitenum=1006,16J01S  ,LWPN2,8
snotel,1242,7/8/2013,1/1/2100,39.25,-119.88,6493,Snow Water Equivalent,NV,Washoe,Franktown Creek-Frontal Washoe Lake,Little Valley,http://www.wcc.nrcs.usda.gov/nwcc/site?sitenum=1242,19K03S  ,LTVN2,8
snotel,615,10/1/1978,1/1/2100,39.16,-119.9,7884,Snow Water Equivalent,NV,Carson City,Sand Harbor-Frontal Lake Tahoe,Marlette Lake,http://www.wcc.nrcs.usda.gov/nwcc/site?sitenum=615,19K04S  ,MRLN2,8
snotel,1207,8/26/2016,1/1/2100,41.89,-115.86,6915,Snow Water Equivalent,NV,Elko,Merritt Creek-Sheep Creek,Merritt Mountain,http://www.wcc.nrcs.usda.gov/nwcc/site?sitenum=1207,15H20S  ,MERN2,8
snotel,652,10/1/1979,1/1/2100,39.32,-119.89,8801,Snow Water Equivalent,NV,Washoe,Hidden Valley-Steamboat Creek,Mt Rose Ski Area,http://www.wcc.nrcs.usda.gov/nwcc/site?sitenum=652,19K07S  ,MRSN2,8
snotel,1272,5/22/2018,1/1/2100,41.86,-115.08,6520,Snow Water Equivalent,NV,Elko,Pole Creek,ONeil Creek,http://www.wcc.nrcs.usda.gov/nwcc/site?sitenum=1272,15H25S  ,ONLN2,8
snotel,1244,7/8/2013,1/1/2100,40.86,-115.12,7760,Snow Water Equivalent,NV,Elko,Woods Creek-Franklin River,Pole Canyon,http://www.wcc.nrcs.usda.gov/nwcc/site?sitenum=1244,15J20S  ,POLN2,8
snotel,698,10/1/1979,1/1/2100,41.87,-115.25,8360,Snow Water Equivalent,NV,Elko,Upper Big Flat Creek,Pole Creek R.S.,http://www.wcc.nrcs.usda.gov/nwcc/site?sitenum=698,15H14S  ,PRSN2,8
snotel,2170,9/17/2014,1/1/2100,39.47,-117.62,7187,Snow Water Equivalent,NV,Lander,Porter Canyon-Porter Creek,Porter Canyon,http://www.wcc.nrcs.usda.gov/nwcc/site?sitenum=2170,SC2170  ,PRTN2,8
snotel,1110,6/2/2008,1/1/2100,36.25,-115.63,7860,Snow Water Equivalent,NV,Clark,Kyle Canyon,Rainbow Canyon,http://www.wcc.nrcs.usda.gov/nwcc/site?sitenum=1110,15N11S  ,RACN2,8
snotel,746,10/1/1978,1/1/2100,41.74,-115.47,7350,Snow Water Equivalent,NV,Elko,Annie Creek-Bruneau River,Seventysix Creek,http://www.wcc.nrcs.usda.gov/nwcc/site?sitenum=746,15H03S  ,SSCN2,8
snotel,750,10/1/1988,1/1/2100,41.9,-119.44,5865,Snow Water Equivalent,NV,Washoe,Catnip Creek,Sheldon,http://www.wcc.nrcs.usda.gov/nwcc/site?sitenum=750,19H05S  ,SHEN2,8
snotel,1194,9/12/2011,1/1/2100,41.49,-119,7615,Snow Water Equivalent,NV,Humboldt,Summit Lake,Summit Lk,http://www.wcc.nrcs.usda.gov/nwcc/site?sitenum=1194,18H02S  ,MTLN2,8
snotel,811,10/1/1979,1/1/2100,41.23,-116.03,6325,Snow Water Equivalent,NV,Elko,Upper Taylors Canyon Creek,Taylor Canyon,http://www.wcc.nrcs.usda.gov/nwcc/site?sitenum=811,15H09S  ,TACN2,8
snotel,1136,7/7/2009,1/1/2100,41.32,-116.34,7690,Snow Water Equivalent,NV,Elko,Toe Jam Creek,Toe Jam,http://www.wcc.nrcs.usda.gov/nwcc/site?sitenum=1136,16H07S  ,TJMN2,8
snotel,1137,6/22/2011,1/1/2100,39.45,-115.98,7890,Snow Water Equivalent,NV,Eureka,Torre Creek-Slough Creek-Frontal Diamond Valley,Vacarro Springs,http://www.wcc.nrcs.usda.gov/nwcc/site?sitenum=1137,15K04S  ,VCSN2,8
snotel,849,10/1/1979,1/1/2100,39.13,-114.96,9163,Snow Water Equivalent,NV,White Pine,Holt Creek,Ward Mountain,http://www.wcc.nrcs.usda.gov/nwcc/site?sitenum=849,14K05S  ,WDMN2,8
snotel,1147,7/26/2010,1/1/2100,39.01,-114.31,10060,Snow Water Equivalent,NV,White Pine,Lehman Creek,Wheeler Peak,http://www.wcc.nrcs.usda.gov/nwcc/site?sitenum=1147,14L04S  ,WHPN2,8
snotel,302,10/30/1980,1/1/2100,45.21,-117.19,7400,Snow Water Equivalent,OR,Wallowa,West Fork Wallowa River-Wallowa River,Aneroid Lake #2,http://www.wcc.nrcs.usda.gov/nwcc/site?sitenum=302,17D02S  ,ANRO3,8
snotel,1000,9/15/2000,1/1/2100,42.87,-122.17,6010,Snow Water Equivalent,OR,Klamath,Upper Annie Creek,Annie Springs,http://www.wcc.nrcs.usda.gov/nwcc/site?sitenum=1000,22G06S  ,ANSO3,8
snotel,304,10/1/1978,1/1/2100,45.19,-119.25,5770,Snow Water Equivalent,OR,Morrow,Upper Fivemile Creek,Arbuckle Mtn,http://www.wcc.nrcs.usda.gov/nwcc/site?sitenum=304,19D02S  ,ARBO3,8
snotel,1166,7/18/2011,1/1/2100,44.33,-122.09,4720,Snow Water Equivalent,OR,Linn,Smith River,Bear Grass,http://www.wcc.nrcs.usda.gov/nwcc/site?sitenum=1166,22E10S  ,BKSO3,8
snotel,331,10/1/1980,1/1/2100,45.15,-118.22,5150,Snow Water Equivalent,OR,Union,Upper Beaver Creek,Beaver Reservoir,http://www.wcc.nrcs.usda.gov/nwcc/site?sitenum=331,18D09S  ,BVRO3,8
snotel,341,10/1/1980,1/1/2100,42.05,-122.85,6050,Snow Water Equivalent,OR,Jackson,Upper Little Applegate River,Big Red Mountain,http://www.wcc.nrcs.usda.gov/nwcc/site?sitenum=341,22G21S  ,BRMO3,8
snotel,343,10/1/1979,1/1/2100,42.08,-123.34,5130,Snow Water Equivalent,OR,Josephine,Sturgis Fork Carberry Creek,Bigelow Camp,http://www.wcc.nrcs.usda.gov/nwcc/site?sitenum=343,23G15S  ,BGCO3,8
snotel,344,10/1/1978,1/1/2100,42.41,-122.27,5280,Snow Water Equivalent,OR,Klamath,Seldom Creek,Billie Creek Divide,http://www.wcc.nrcs.usda.gov/nwcc/site?sitenum=344,22G13S  ,BCDO3,8
snotel,351,10/1/1980,1/1/2100,45.43,-121.86,3650,Snow Water Equivalent,OR,Clackamas,Clear Creek-Sandy River,Blazed Alder,http://www.wcc.nrcs.usda.gov/nwcc/site?sitenum=351,21D33S  ,BLAO3,8
snotel,357,10/1/1978,1/1/2100,44.25,-118.52,5870,Snow Water Equivalent,OR,Grant,Summit Creek,Blue Mountain Spring,http://www.wcc.nrcs.usda.gov/nwcc/site?sitenum=357,18E16S  ,BLPO3,8
snotel,361,10/1/1978,1/1/2100,44.83,-118.19,5850,Snow Water Equivalent,OR,Baker,Cracker Creek,Bourne,http://www.wcc.nrcs.usda.gov/nwcc/site?sitenum=361,18E05S  ,BORO3,8
snotel,362,10/1/1978,1/1/2100,45.36,-118.47,4530,Snow Water Equivalent,OR,Umatilla,Johnson Creek,Bowman Springs,http://www.wcc.nrcs.usda.gov/nwcc/site?sitenum=362,18D20S  ,BMSO3,8
snotel,388,10/1/1980,1/1/2100,43.59,-122.06,5100,Snow Water Equivalent,OR,Deschutes,Upper Salt Creek,Cascade Summit,http://www.wcc.nrcs.usda.gov/nwcc/site?sitenum=388,22F03S  ,CSTO3,8
snotel,395,10/1/1980,1/1/2100,43.23,-121.81,4850,Snow Water Equivalent,OR,Klamath,Deer Creek,Chemult Alternate,http://www.wcc.nrcs.usda.gov/nwcc/site?sitenum=395,21F22S  ,CHUO3,8
snotel,398,10/1/1980,1/1/2100,45.1,-121.75,3400,Snow Water Equivalent,OR,Clackamas,Headwaters Oak Grove Fork Clackamas River,Clackamas Lake,http://www.wcc.nrcs.usda.gov/nwcc/site?sitenum=398,21D13S  ,CLLO3,8
snotel,401,10/1/1980,1/1/2100,45.19,-121.69,3810,Snow Water Equivalent,OR,Wasco,Clear Creek,Clear Lake,http://www.wcc.nrcs.usda.gov/nwcc/site?sitenum=401,21D12S  ,CLKO3,8
snotel,406,10/1/1980,1/1/2100,42.53,-122.18,5940,Snow Water Equivalent,OR,Klamath,Upper Fourmile Creek,Cold Springs Camp,http://www.wcc.nrcs.usda.gov/nwcc/site?sitenum=406,22G24S  ,CSCO3,8
snotel,422,10/1/1980,1/1/2100,45.19,-118.55,4830,Snow Water Equivalent,OR,Umatilla,Middle Meadow Creek,County Line,http://www.wcc.nrcs.usda.gov/nwcc/site?sitenum=422,18D08S  ,COLO3,8
snotel,1010,9/4/2001,1/1/2100,42.64,-120.95,6180,Snow Water Equivalent,OR,Klamath,Paradise Creek,Crazyman Flat,http://www.wcc.nrcs.usda.gov/nwcc/site?sitenum=1010,20G12S  ,CZFO3,8
snotel,434,10/1/1978,1/1/2100,44.52,-122.09,3690,Snow Water Equivalent,OR,Linn,Pyramid Creek,Daly Lake,http://www.wcc.nrcs.usda.gov/nwcc/site?sitenum=434,22E08S  ,DALO3,8
snotel,440,10/1/1980,1/1/2100,44.45,-119.93,5850,Snow Water Equivalent,OR,Wheeler,Jackson Creek,Derr.,http://www.wcc.nrcs.usda.gov/nwcc/site?sitenum=440,19E03S  ,DERO3,8
snotel,442,10/1/1980,1/1/2100,43.19,-122.14,5280,Snow Water Equivalent,OR,Douglas,Lake Creek,Diamond Lake,http://www.wcc.nrcs.usda.gov/nwcc/site?sitenum=442,22F18S  ,DIAO3,8
snotel,464,10/1/1980,1/1/2100,44.87,-118.11,5510,Snow Water Equivalent,OR,Baker,Rock Creek,Eilertson Meadows,http://www.wcc.nrcs.usda.gov/nwcc/site?sitenum=464,18E03S  ,EIMO3,8
snotel,470,10/1/1980,1/1/2100,45.56,-118.45,3800,Snow Water Equivalent,OR,Umatilla,Iskuulpa Creek,Emigrant Springs,http://www.wcc.nrcs.usda.gov/nwcc/site?sitenum=470,18D04S  ,ESPO3,8
snotel,477,10/1/1979,1/1/2100,42.71,-118.63,7660,Snow Water Equivalent,OR,Harney,Fish Creek,Fish Creek,http://www.wcc.nrcs.usda.gov/nwcc/site?sitenum=477,18G02S  ,FCKO3,8
snotel,479,10/1/1979,1/1/2100,42.38,-122.35,4660,Snow Water Equivalent,OR,Jackson,Upper North Fork Little Butte Creek,Fish Lk.,http://www.wcc.nrcs.usda.gov/nwcc/site?sitenum=479,22G14S  ,FISO3,8
snotel,483,10/1/1978,1/1/2100,42.44,-122.23,5970,Snow Water Equivalent,OR,Klamath,Upper Fourmile Creek,Fourmile Lake,http://www.wcc.nrcs.usda.gov/nwcc/site?sitenum=483,22G12S  ,FRLO3,8
snotel,945,10/1/1998,1/1/2100,42.21,-121.13,4890,Snow Water Equivalent,OR,Klamath,Gerber Reservoir,Gerber Reservoir,http://www.wcc.nrcs.usda.gov/nwcc/site?sitenum=945,21G04S  ,GSTO3,8
snotel,494,10/1/1980,1/1/2100,44.76,-118.31,5410,Snow Water Equivalent,OR,Grant,Bull Run Creek,Gold Center,http://www.wcc.nrcs.usda.gov/nwcc/site?sitenum=494,18E08S  ,GLDO3,8
snotel,504,10/1/1978,1/1/2100,45.62,-121.7,3310,Snow Water Equivalent,OR,Hood River,Lower West Fork Hood River,Greenpoint,http://www.wcc.nrcs.usda.gov/nwcc/site?sitenum=504,21D01S  ,GRPO3,8
snotel,523,10/1/1978,1/1/2100,45.7,-118.11,4920,Snow Water Equivalent,OR,Umatilla,Buck Creek-South Fork Umatilla River,High Ridge,http://www.wcc.nrcs.usda.gov/nwcc/site?sitenum=523,18D19S  ,HIRO3,8
snotel,526,10/1/1978,1/1/2100,44.42,-121.86,4790,Snow Water Equivalent,OR,Linn,Parks Creek-Lost Lake,Hogg Pass,http://www.wcc.nrcs.usda.gov/nwcc/site?sitenum=526,21E06S  ,HOPO3,8
snotel,529,10/1/1980,1/1/2100,43.67,-122.57,4930,Snow Water Equivalent,OR,Lane,Layng Creek,Holland Meadows,http://www.wcc.nrcs.usda.gov/nwcc/site?sitenum=529,22F42S  ,HLMO3,8
snotel,1158,9/26/2012,1/1/2100,42.22,-122.37,4580,Snow Water Equivalent,OR,Jackson,Upper Jenny Creek,Howard Prairie,http://www.wcc.nrcs.usda.gov/nwcc/site?sitenum=1158,22G26S  ,HOWO3,8
snotel,545,10/1/1978,1/1/2100,43.8,-121.95,5540,Snow Water Equivalent,OR,Deschutes,Deer Creek,Irish Taylor,http://www.wcc.nrcs.usda.gov/nwcc/site?sitenum=545,21F21S  ,BEDO3,8
snotel,552,10/1/1978,1/1/2100,44.39,-122.17,3520,Snow Water Equivalent,OR,Linn,Sevenmile Creek-South Santiam River,Jump Off Joe,http://www.wcc.nrcs.usda.gov/nwcc/site?sitenum=552,22E07S  ,JOJO3,8
snotel,558,10/1/1980,1/1/2100,42.72,-123.2,4340,Snow Water Equivalent,OR,Jackson,Whitehorse Creek-Cow Creek,King Mountain,http://www.wcc.nrcs.usda.gov/nwcc/site?sitenum=558,23G09S  ,KIMO3,8
snotel,563,10/1/1978,1/1/2100,44.21,-118.64,5240,Snow Water Equivalent,OR,Grant,Lake Creek,Lake Creek R.S.,http://www.wcc.nrcs.usda.gov/nwcc/site?sitenum=563,18E18S  ,LKCO3,8
snotel,584,10/1/1978,1/1/2100,44.61,-122.23,4020,Snow Water Equivalent,OR,Linn,Headwaters Quartzville Creek,Little Meadows,http://www.wcc.nrcs.usda.gov/nwcc/site?sitenum=584,22E09S  ,LMDO3,8
snotel,605,10/1/1978,1/1/2100,45.27,-118.85,4970,Snow Water Equivalent,OR,Umatilla,West Birch Creek,Lucky Strike,http://www.wcc.nrcs.usda.gov/nwcc/site?sitenum=605,18D06S  ,LUKO3,8
snotel,608,10/1/1980,1/1/2100,45.11,-119.5,5150,Snow Water Equivalent,OR,Morrow,Chapin Creek-Rock Creek,Madison Butte,http://www.wcc.nrcs.usda.gov/nwcc/site?sitenum=608,19D03S  ,MDBO3,8
snotel,614,10/1/1980,1/1/2100,44.59,-121.97,2590,Snow Water Equivalent,OR,Linn,Minto Creek-North Santiam River,Marion Forks,http://www.wcc.nrcs.usda.gov/nwcc/site?sitenum=614,21E04S  ,MRFO3,8
snotel,619,10/1/1980,1/1/2100,44.21,-121.87,4770,Snow Water Equivalent,OR,Lane,White Branch,Mckenzie,http://www.wcc.nrcs.usda.gov/nwcc/site?sitenum=619,21E07S  ,MKZO3,8
snotel,1079,9/19/2007,1/1/2100,45.98,-117.95,5580,Snow Water Equivalent,OR,Wallowa,Upper Mill Creek,Milk Shakes,http://www.wcc.nrcs.usda.gov/nwcc/site?sitenum=1079,17D20S  ,MLKO3,8
snotel,1084,9/22/2006,1/1/2100,45.25,-123.28,420,Snow Water Equivalent,OR,Yamhill,Baker Creek,Miller Woods,http://www.wcc.nrcs.usda.gov/nwcc/site?sitenum=1084,23D03S  ,MWDO3,8
snotel,647,10/1/1980,1/1/2100,45.27,-117.69,5760,Snow Water Equivalent,OR,Union,Mill Creek,Moss Springs,http://www.wcc.nrcs.usda.gov/nwcc/site?sitenum=647,17D06S  ,MOSO3,8
snotel,651,10/1/1980,1/1/2100,45.32,-121.72,5370,Snow Water Equivalent,OR,Clackamas,Upper Salmon River,Mt Hood Test Site,http://www.wcc.nrcs.usda.gov/nwcc/site?sitenum=651,21D08S  ,MTHO3,8
snotel,653,10/1/1980,1/1/2100,45.27,-117.17,7910,Snow Water Equivalent,OR,Wallowa,Upper Prairie Creek,Mt. Howard,http://www.wcc.nrcs.usda.gov/nwcc/site?sitenum=653,17D18S  ,MHWO3,8
snotel,655,10/1/1978,1/1/2100,45.25,-121.74,4070,Snow Water Equivalent,OR,Clackamas,Upper Salmon River,Mud Ridge,http://www.wcc.nrcs.usda.gov/nwcc/site?sitenum=655,21D35S  ,MUDO3,8
snotel,660,10/1/1980,1/1/2100,43.51,-121.98,4910,Snow Water Equivalent,OR,Klamath,Upper Crescent Creek,New Crescent Lake,http://www.wcc.nrcs.usda.gov/nwcc/site?sitenum=660,21F10S  ,NCLO3,8
snotel,666,10/1/1978,1/1/2100,45.55,-122,3060,Snow Water Equivalent,OR,Multnomah,Middle Bull Run River,North Fork,http://www.wcc.nrcs.usda.gov/nwcc/site?sitenum=666,22D02S  ,NFRO3,8
snotel,671,10/1/1980,1/1/2100,44.43,-120.33,5430,Snow Water Equivalent,OR,Crook,Headwaters Ochoco Creek,Ochoco Meadows,http://www.wcc.nrcs.usda.gov/nwcc/site?sitenum=671,20E02S  ,OCMO3,8
snotel,687,10/1/1980,1/1/2100,45.04,-121.93,3420,Snow Water Equivalent,OR,Clackamas,Cot Creek-Oat Grove Fork Clackamas River,Peavine Ridge,http://www.wcc.nrcs.usda.gov/nwcc/site?sitenum=687,21D14S  ,PVRO3,8
snotel,706,10/1/1980,1/1/2100,42.32,-120.83,5720,Snow Water Equivalent,OR,Lake,Middle South Fork Sprague River,Quartz Mountain,http://www.wcc.nrcs.usda.gov/nwcc/site?sitenum=706,20G06S  ,QRMO3,8
snotel,710,10/1/1980,1/1/2100,43.66,-122.21,2680,Snow Water Equivalent,OR,Lane,Middle Salt Creek,Railroad Overpass,http://www.wcc.nrcs.usda.gov/nwcc/site?sitenum=710,22F05S  ,RROO3,8
snotel,712,10/1/1978,1/1/2100,45.46,-121.7,4410,Snow Water Equivalent,OR,Hood River,Lower Middle Fork Hood River,Red Hill,http://www.wcc.nrcs.usda.gov/nwcc/site?sitenum=712,21D04S  ,REDO3,8
snotel,719,10/1/1980,1/1/2100,43.9,-122.03,4950,Snow Water Equivalent,OR,Lane,Roaring River-South Fork McKenzie River,Roaring River,http://www.wcc.nrcs.usda.gov/nwcc/site?sitenum=719,22F43S  ,RORO3,8
